School_name,Town_suburb,Postcode,School_gender,Level_of_schooling,Latitude,Longitude,SA2_Code
Abbotsford Public School,Abbotsford,2046,Coed,Primary School,-33.852728,151.131206,120011386
Aberdeen Public School,Aberdeen,2336,Coed,Primary School,-32.166098,150.888095,106041129
Abermain Public School,Abermain,2326,Coed,Primary School,-32.80892,151.426499,106011111
Adaminaby Public School,ADAMINABY,2629,Coed,Primary School,-35.993292,148.776721,101031015
Adamstown Public School,Adamstown,2289,Coed,Primary School,-32.932213,151.730971,111031222
Adelong Public School,Adelong,2729,Coed,Primary School,-35.312333,148.062802,113021262
Albion Park Public School,Albion Park,2527,Coed,Primary School,-34.570257,150.77262,107031136
Timbumburi Public School,Timbumburi,2340,Coed,Primary School,-31.203781,150.915629,110041205
Albury Public School,Albury,2640,Coed,Primary School,-36.082454,146.919253,109011174
Albury West Public School,Albury,2640,Coed,Primary School,-36.07783,146.895548,109011174
Alma Public School,Broken Hill,2880,Coed,Primary School,-31.982217,141.462443,105021097
Alstonville Public School,Alstonville,2477,Coed,Primary School,-28.838471,153.438172,112011237
Anna Bay Public School,Anna Bay,2316,Coed,Primary School,-32.77637,152.089912,106031119
Annandale Public School,Annandale,2038,Coed,Primary School,-33.885782,151.169599,120021388
Annandale North Public School,Annandale,2038,Coed,Primary School,-33.877905,151.171835,120021388
Appin Public School,APPIN,2560,Coed,Primary School,-34.198417,150.78766,123031446
Arcadia Public School,ARCADIA,2159,Coed,Primary School,-33.623487,151.051031,115021298
Ardlethan Central School,Ardlethan,2665,Coed,Central/Community School,-34.354098,146.900557,113031266
Ariah Park Central School,Ariah Park,2665,Coed,Central/Community School,-34.346925,147.218018,113031266
Armidale City Public School,Armidale,2350,Coed,Primary School,-30.519501,151.664056,110011186
Drummond Memorial Public School,ARMIDALE,2350,Coed,Primary School,-30.511469,151.650715,110011186
Artarmon Public School,Artarmon,2064,Coed,Primary School,-33.811249,151.186001,121011398
Ashbury Public School,Ashbury,2193,Coed,Primary School,-33.898833,151.11944,120031392
Ashfield Public School,Ashfield,2131,Coed,Primary School,-33.889723,151.12821,120031390
Ashford Central School,Ashford,2361,Coed,Central/Community School,-29.321262,151.094638,110021192
Asquith Public School,Asquith,2077,Coed,Primary School,-33.685729,151.112177,121021403
Attunga Public School,Attunga,2345,Coed,Primary School,-30.930445,150.846575,110041205
Auburn North Public School,Auburn,2144,Coed,Primary School,-33.841669,151.038618,125011583
Auburn West Public School,Auburn,2144,Coed,Primary School,-33.860931,151.019764,125011584
Austinmer Public School,Austinmer,2515,Coed,Primary School,-34.305398,150.934991,107041148
Austral Public School,AUSTRAL,2179,Coed,Primary School,-33.934487,150.812638,127011505
Avoca Public School,Avoca,2577,Coed,Primary School,-34.612697,150.479766,114021288
Avoca Beach Public School,Avoca Beach,2251,Coed,Primary School,-33.471154,151.430745,102011028
Awaba Public School,Awaba,2283,Coed,Primary School,-33.010554,151.538068,111021219
Colo Vale Public School,Colo Vale,2575,Coed,Primary School,-34.401281,150.476178,114021285
Bald Blair Public School,Guyra,2365,Coed,Primary School,-30.229893,151.785056,110011187
Seaforth Public School,Seaforth,2092,Coed,Primary School,-33.793262,151.251235,122011418
Balgownie Public School,Balgownie,2519,Coed,Primary School,-34.386984,150.872076,107041144
Ballimore Public School,Ballimore,2830,Coed,Primary School,-32.193596,148.899631,105031103
Ballina Public School,Ballina,2478,Coed,Primary School,-28.869724,153.563707,112011236
Balranald Central School,Balranald,2715,Coed,Central/Community School,-34.635575,143.564769,109021179
Bangalow Public School,Bangalow,2479,Coed,Primary School,-28.68554,153.525743,112011238
Banksmeadow Public School,Botany,2019,Coed,Primary School,-33.953739,151.20661,117011321
Greenacre Public School,Greenacre,2190,Coed,Primary School,-33.911161,151.057581,119011357
Bankstown North Public School,Bankstown,2200,Coed,Primary School,-33.904888,151.038043,119011571
Banora Point Public School,Banora Point,2486,Coed,Primary School,-28.222422,153.543702,112031550
Baradine Central School,Baradine,2396,Coed,Central/Community School,-30.950736,149.070198,105031099
Barellan Central School,Barellan,2665,Coed,Central/Community School,-34.287799,146.571928,113011259
Bargo Public School,Bargo,2574,Coed,Primary School,-34.292889,150.58274,123031445
Barham Public School,Barham,2732,Coed,Primary School,-35.626915,144.127977,109031183
Barkers Vale Public School,Wadeville,2474,Coed,Primary School,-28.54902,153.14927,112021247
Barmedman Public School,Barmedman,2668,Coed,Primary School,-34.148277,147.385078,103021069
Barnsley Public School,Barnsley,2278,Coed,Primary School,-32.933094,151.594552,111021221
Barooga Public School,Barooga,3644,Coed,Primary School,-35.912963,145.695985,109031185
Barraba Central School,Barraba,2347,Coed,Central/Community School,-30.38239,150.599478,110041205
Barrington Public School,Barrington,2422,Coed,Primary School,-31.971159,151.911058,108051167
Baryulgil Public School,Baryulgil,2460,Coed,Primary School,-29.2235,152.605615,104011081
Bass Hill Public School,Bass Hill,2197,Coed,Primary School,-33.905902,151.005779,119011354
Batemans Bay Public School,Surfside,2536,Coed,Primary School,-35.700051,150.188373,101041017
Bathurst Public School,Bathurst,2795,Coed,Primary School,-33.420942,149.570615,103011058
Batlow Technology School,Batlow,2730,Coed,Central/Community School,-35.523007,148.146548,113021262
Beckom Public School,Beckom,2665,Coed,Primary School,-34.327211,146.962928,113031266
Bedgerabong Public School,BEDGERABONG,2871,Coed,Primary School,-33.361353,147.679318,103021065
Beechwood Public School,Wauchope,2446,Coed,Primary School,-31.435535,152.68094,108041166
Beecroft Public School,Beecroft,2119,Coed,Primary School,-33.752085,151.06462,126011496
Beelbangera Public School,Beelbangera,2680,Coed,Primary School,-34.252836,146.101067,113011257
Bega Valley Public School,Bega,2550,Coed,Primary School,-36.670545,149.839095,101041019
Bellata Public School,Bellata,2397,Coed,Primary School,-29.918659,149.796216,110031198
Bellbird Public School,BELLBIRD,2325,Coed,Primary School,-32.859421,151.316705,106011108
Bellbrook Public School,Bellbrook,2440,Coed,Primary School,-30.819094,152.508698,108021156
Bellevue Hill Public School,Bellevue Hill,2023,Coed,Primary School,-33.886986,151.259785,118011343
Bellingen Public School,Bellingen,2454,Coed,Primary School,-30.45349,152.891887,104021083
Belltrees Public School,Belltrees,2337,Coed,Primary School,-31.988753,151.129487,106041129
Belmont Public School,Belmont,2280,Coed,Primary School,-33.030134,151.662203,111011206
Belmore North Public School,Belmore,2192,Coed,Primary School,-33.909885,151.084885,119021362
Belmore South Public School,Belmore,2192,Coed,Primary School,-33.925735,151.091985,119021362
Bemboka Public School,Bemboka,2550,Coed,Primary School,-36.631309,149.571075,101041020
Bendemeer Public School,Bendemeer,2355,Coed,Primary School,-30.886984000000002,151.150991,110041205
Ben Lomond Public School,Ben Lomond,2365,Coed,Primary School,-30.017024,151.661287,110011187
Ben Venue Public School,Armidale,2350,Coed,Primary School,-30.502884,151.67462,110011186
Berala Public School,Berala,2141,Coed,Primary School,-33.869714,151.028244,125011585
Beresfield Public School,Beresfield,2322,Coed,Primary School,-32.803964,151.654863,111031223
Berkeley Public School,Berkeley,2506,Coed,Primary School,-34.480214,150.856493,107011545
Berkeley Vale Public School,Berkeley Vale,2261,Coed,Primary School,-33.350515,151.435888,102021047
Bermagui Public School,Bermagui,2546,Coed,Primary School,-36.420776,150.063625,101041027
Berowra Public School,Berowra,2081,Coed,Primary School,-33.618522,151.148996,121021404
Berridale Public School,Berridale,2628,Coed,Primary School,-36.371444,148.827209,101031016
Berrigan Public School,Berrigan,2712,Coed,Primary School,-35.659667,145.815664,109031185
Berrima Public School,Berrima,2577,Coed,Primary School,-34.485882,150.340775,114021287
Berry Public School,Berry,2535,Coed,Primary School,-34.778317,150.689706,114011272
Beverly Hills Public School,Beverly Hills,2209,Coed,Primary School,-33.953449,151.085209,119031368
Bexhill Public School,Bexhill,2480,Coed,Primary School,-28.766026,153.345835,112021249
Bigga Public School,Bigga,2583,Coed,Primary School,-34.0847,149.144602,101051540
Bilambil Public School,Bilambil,2486,Coed,Primary School,-28.223742,153.468431,112031254
Ocean Shores Public School,OCEAN SHORES,2483,Coed,Primary School,-28.491203,153.540337,112011239
Bilpin Public School,Bilpin,2758,Coed,Primary School,-33.497331,150.516765,115031299
Binalong Public School,BINALONG,2584,Coed,Primary School,-34.670108,148.625718,101061542
Binda Public School,Binda,2583,Coed,Primary School,-34.331463,149.368114,101051540
Bingara Central School,Bingara,2404,Coed,Central/Community School,-29.866705,150.56725,110021193
Binnaway Central School,Binnaway,2395,Coed,Central/Community School,-31.552793,149.374951,105031099
Binya Public School,Binya,2665,Coed,Primary School,-34.228678,146.353034,113011257
Birchgrove Public School,Balmain,2041,Coed,Primary School,-33.853009,151.177045,120021387
Blackheath Public School,Blackheath,2785,Coed,Primary School,-33.639284,150.285831,124011449
Black Hill Public School,Black Hill,2322,Coed,Primary School,-32.838523,151.617131,106011109
Black Mountain Public School,Black Mountain,2365,Coed,Primary School,-30.308489,151.657688,110011187
Blackville Public School,Blackville,2343,Coed,Primary School,-31.64044,150.237489,110041201
Blakebrook Public School,Blakebrook,2480,Coed,Primary School,-28.763426,153.229992,112021249
Blakehurst Public School,Blakehurst,2221,Coed,Primary School,-33.98298,151.115779,119031374
Blandford Public School,Blandford,2338,Coed,Primary School,-31.778585,150.892725,106041129
Blaxcell Street Public School,Granville,2142,Coed,Primary School,-33.858068,151.006125,125031483
Blaxland Public School,Blaxland,2774,Coed,Primary School,-33.737103,150.603489,124011450
Blayney Public School,Blayney,2799,Coed,Primary School,-33.528987,149.251583,103041076
Blighty Public School,Blighty,2713,Coed,Primary School,-35.580094,145.349272,109031183
Boambee Public School,Boambee,2450,Coed,Primary School,-30.334055,153.077009,104021089
Bobin Public School,Bobin,2429,Coed,Primary School,-31.712682,152.28388,108051170
Bobs Farm Public School,Bobs Farm,2316,Coed,Primary School,-32.766796,152.010937,106031119
Bodalla Public School,Bodalla,2545,Coed,Primary School,-36.09938,150.053879,101041024
Bogan Gate Public School,Bogan Gate,2876,Coed,Primary School,-33.104968,147.797859,103021068
Boggabilla Central School,Boggabilla,2409,Coed,Central/Community School,-28.616586,150.361593,110031196
Boggabri Public School,Boggabri,2382,Coed,Primary School,-30.705682,150.043053,110041200
Bolwarra Public School,Bolwarra,2320,Coed,Primary School,-32.706994,151.573008,106021116
Bomaderry Public School,Bomaderry,2541,Coed,Primary School,-34.847379,150.608269,114011277
Bombala Public School,Bombala,2632,Coed,Primary School,-36.918986,149.233792,101031013
Bonalbo Central School,Bonalbo,2469,Coed,Central/Community School,-28.735472,152.623959,112021245
Bondi Beach Public School,Bondi Beach,2026,Coed,Primary School,-33.8883,151.276821,118011340
Bongongo Public School,Adjungbilly,2727,Coed,Primary School,-35.08463,148.399517,113031264
Bonshaw Public School,Bonshaw,2361,Coed,Primary School,-29.046366,151.278092,110021192
Bonville Public School,BONVILLE,2450,Coed,Primary School,-30.379782,153.032316,104021089
Boolaroo Public School,Boolaroo,2284,Coed,Primary School,-32.951196,151.622765,111011214
Booligal Public School,Booligal,2711,Coed,Primary School,-33.86704,144.886395,109021177
Boomi Public School,Boomi,2405,Coed,Primary School,-28.724129,149.577268,110031196
Booral Public School,Booral,2425,Coed,Primary School,-32.471428,151.960736,108011151
Boorowa Central School,Boorowa,2586,Coed,Central/Community School,-34.436712,148.726108,101061544
Boree Creek Public School,Boree Creek,2652,Coed,Primary School,-35.105937,146.606338,113011259
Boronia Park Public School,HUNTERS HILL,2110,Coed,Primary School,-33.821414,151.135558,126021499
Bossley Park Public School,Bossley Park,2176,Coed,Primary School,-33.858524,150.883076,127021510
Botany Public School,Botany,2019,Coed,Primary School,-33.94316,151.194687,117011321
Bourke Public School,BOURKE,2840,Coed,Primary School,-30.09351,145.94968,105011092
Norfolk Island Central School,Norfolk Island,2899,Coed,Central/Community School,-29.041061,167.967768,NA
Bowning Public School,Bowning,2582,Coed,Primary School,-34.769376,148.81153,101061542
Bowral Public School,BOWRAL,2576,Coed,Primary School,-34.481178,150.419191,114021284
Bowraville Central School,BOWRAVILLE,2449,Coed,Central/Community School,-30.645288999999998,152.853898,108021159
Braidwood Central School,Braidwood,2622,Coed,Central/Community School,-35.440595,149.798888,101021007
Branxton Public School,BRANXTON,2335,Coed,Primary School,-32.659391,151.350682,106011107
Breadalbane Public School,BREADALBANE,2581,Coed,Primary School,-34.790546,149.487576,101051540
Colo Heights Public School,Colo Heights,2756,Coed,Primary School,-33.372972,150.739776,115031299
Bredbo Public School,Bredbo,2626,Coed,Primary School,-35.95399,149.14797,101031015
Brewarrina Central School,BREWARRINA,2839,Coed,Central/Community School,-29.963669,146.859088,105011092
Bribbaree Public School,Bribbaree,2594,Coed,Primary School,-34.12042,147.874699,101061544
Brighton-Le-Sands Public School,BRIGHTON-LE-SANDS,2216,Coed,Primary School,-33.962357,151.148929,119041380
Bringelly Public School,BRINGELLY,2556,Coed,Primary School,-33.93791,150.730266,127011505
Broadwater Public School,Broadwater,2472,Coed,Primary School,-29.002773,153.437279,112011241
Brocklesby Public School,Brocklesby,2642,Coed,Primary School,-35.823911,146.677989,109011175
Broke Public School,Broke,2330,Coed,Primary School,-32.744976,151.104334,106011113
Broken Hill Public School,Broken Hill,2880,Coed,Primary School,-31.956108,141.456502,105021097
Broken Hill North Public School,Broken Hill,2880,Coed,Primary School,-31.944457,141.471518,105021097
Bronte Public School,Bronte,2024,Coed,Primary School,-33.900605,151.262011,118011339
Brooklyn Public School,Brooklyn,2083,Coed,Primary School,-33.548414,151.214992,121021404
Brookvale Public School,Brookvale,2100,Coed,Primary School,-33.761678,151.270787,122031429
Brungle Public School,Brungle,2722,Coed,Primary School,-35.156755,148.233572,113021262
Brunswick Heads Public School,Brunswick Heads,2483,Coed,Primary School,-28.541343,153.550848,112011239
Bulahdelah Central School,Bulahdelah,2423,Coed,Central/Community School,-32.413374,152.211848,108011151
Bulli Public School,Bulli,2516,Coed,Primary School,-34.326951,150.912703,107041150
Bundanoon Public School,Bundanoon,2578,Coed,Primary School,-34.657878,150.300442,114021289
Bundarra Central School,BUNDARRA,2359,Coed,Central/Community School,-30.168353,151.077625,110021192
Bungendore Public School,Bungendore,2621,Coed,Primary School,-35.255619,149.444628,101021011
Bungwahl Public School,BUNGWAHL,2423,Coed,Primary School,-32.389144,152.448558,108011153
Bunnaloo Public School,Bunnaloo,2731,Coed,Primary School,-35.786399,144.597923,109031183
Burke Ward Public School,Broken Hill,2880,Coed,Primary School,-31.960361,141.441054,105021097
Burnside Public School,North Parramatta,2151,Coed,Primary School,-33.79258,151.018316,125041489
Burrawang Public School,Burrawang,2577,Coed,Primary School,-34.592222,150.51725,114021288
Burren Junction Public School,Burren Junction,2386,Coed,Primary School,-30.102686,148.964703,105011096
Burringbar Public School,Burringbar,2483,Coed,Primary School,-28.436645,153.466738,112031253
Burrumbuttock Public School,Burrumbuttock,2642,Coed,Primary School,-35.837489,146.800049,109011175
Burwood Public School,BURWOOD,2134,Coed,Primary School,-33.8768,151.098987,120031391
Buxton Public School,Buxton,2571,Coed,Primary School,-34.246971,150.544826,123031447
Byron Bay Public School,Byron Bay,2481,Coed,Primary School,-28.647416,153.614826,112011240
Cabbage Tree Island Public School,Cabbage Tree Island,2477,Coed,Primary School,-28.98367,153.457788,112011237
Cabramatta Public School,Cabramatta,2166,Coed,Primary School,-33.895823,150.942629,127021511
Cambewarra Public School,Cambewarra,2540,Coed,Primary School,-34.821537,150.556043,114011277
Camden Public School,Camden,2570,Coed,Primary School,-34.051998,150.693236,123011433
Camdenville Public School,Newtown,2042,Coed,Primary School,-33.906146,151.175741,117031332
Cammeray Public School,Cammeray,2062,Coed,Primary School,-33.820422,151.211542,121041413
Campbelltown Public School,Campbelltown,2560,Coed,Primary School,-34.070109,150.815634,123021437
Campsie Public School,Campsie,2194,Coed,Primary School,-33.911863,151.104846,119021363
Candelo Public School,Candelo,2550,Coed,Primary School,-36.768392,149.695674,101041020
Caniaba Public School,Lismore,2480,Coed,Primary School,-28.830799,153.231317,112021249
Canley Vale Public School,Canley Vale,2166,Coed,Primary School,-33.88676,150.937632,127021513
Canobolas Public School,Orange,2800,Coed,Primary School,-33.305942,149.04621,103041079
Canterbury Public School,Canterbury,2193,Coed,Primary School,-33.908761,151.122306,120031392
Brisbania Public School,Saratoga,2251,Coed,Primary School,-33.478822,151.357294,102011038
Uranquinty Public School,URANQUINTY,2652,Coed,Primary School,-35.188793,147.249486,113031271
Capertee Public School,Capertee,2846,Coed,Primary School,-33.147074,149.985922,103031071
Captains Flat Public School,Captains Flat,2623,Coed,Primary School,-35.587192,149.450147,101021011
Caragabal Public School,Caragabal,2810,Coed,Primary School,-33.84532,147.744452,103021066
Carcoar Public School,Carcoar,2791,Coed,Primary School,-33.612326,149.142432,103041076
Cardiff Public School,Cardiff,2285,Coed,Primary School,-32.945779,151.657754,111011209
Cargo Public School,Cargo,2800,Coed,Primary School,-33.427612,148.807697,103041079
Carinda Public School,Carinda,2831,Coed,Primary School,-30.461882,147.687555,105011096
Caringbah Public School,Caringbah,2229,Coed,Primary School,-34.053433,151.122988,128011603
Carlton Public School,Bexley,2207,Coed,Primary School,-33.963496,151.12246,119041376
Carlton South Public School,Carlton,2218,Coed,Primary School,-33.973045,151.128287,119041379
Carool Public School,Carool,2486,Coed,Primary School,-28.229959,153.4293,112031254
Carrathool Public School,Carrathool,2711,Coed,Primary School,-34.409166,145.431622,113011257
Carrington Public School,Carrington,2294,Coed,Primary School,-32.912446,151.765328,111031235
Carroll Public School,Carroll,2340,Coed,Primary School,-30.986074,150.447096,110041200
Casino Public School,Casino,2470,Coed,Primary School,-28.867384,153.048053,112021244
Cassilis Public School,Cassilis,2329,Coed,Primary School,-32.004552,149.978075,106041129
Castle Hill Public School,Castle Hill,2154,Coed,Primary School,-33.727887,151.004663,115011555
Cattai Public School,Cattai,2756,Coed,Primary School,-33.558762,150.906904,115041301
Cawdor Public School,Camden,2570,Coed,Primary School,-34.109711,150.673727,123031446
Cessnock Public School,Cessnock,2325,Coed,Primary School,-32.840405,151.363808,106011108
Cessnock East Public School,Cessnock,2325,Coed,Primary School,-32.827606,151.369746,106011108
Cessnock West Public School,Cessnock,2325,Coed,Primary School,-32.838387,151.344863,106011108
Chandler Public School,Wollomombi,2350,Coed,Primary School,-30.518553,152.053551,110011187
The Channon Public School,The Channon,2480,Coed,Primary School,-28.675099,153.280288,112021249
Charlestown Public School,Charlestown,2290,Coed,Primary School,-32.965494,151.697486,111011208
Pacific Palms Public School,Boomerang Beach,2428,Coed,Primary School,-32.341023,152.539306,108011153
Chatsworth Island Public School,CHATSWORTH,2469,Coed,Primary School,-29.387954,153.231645,104011082
Chillingham Public School,Chillingham,2484,Coed,Primary School,-28.311937,153.275569,112031252
Chipping Norton Public School,Chipping Norton,2170,Coed,Primary School,-33.909108,150.96085,127031523
Clarence Town Public School,Clarence Town,2321,Coed,Primary School,-32.588731,151.777207,106011110
Clemton Park Public School,Earlwood,2206,Coed,Primary School,-33.929708,151.108423,119021364
Clovelly Public School,Waverley,2024,Coed,Primary School,-33.907431,151.26028,118011339
Clunes Public School,Clunes,2480,Coed,Primary School,-28.724778,153.408852,112021249
Cobar Public School,Cobar,2835,Coed,Primary School,-31.502199,145.836609,105011093
Cobargo Public School,Cobargo,2550,Coed,Primary School,-36.386942,149.882818,101041020
Cobbitty Public School,Cobbitty,2570,Coed,Primary School,-34.0159,150.685938,127011506
Coffee Camp Public School,Coffee Camp,2480,Coed,Primary School,-28.662664,153.220638,112021249
Coffs Harbour Public School,COFFS HARBOUR,2450,Coed,Primary School,-30.30196,153.120372,104021085
Coledale Public School,Coledale,2515,Coed,Primary School,-34.289546,150.947366,107041148
Collarenebri Central School,COLLARENEBRI,2833,Coed,Central/Community School,-29.543823,148.578086,105011096
Collector Public School,Collector,2581,Coed,Primary School,-34.914221,149.433144,101051540
Collins Creek Public School,Collins Creek,2474,Coed,Primary School,-28.489297,153.022547,112021247
Colyton Public School,Mount Druitt,2770,Coed,Primary School,-33.777199,150.81316,116031317
Comboyne Public School,Comboyne,2429,Coed,Primary School,-31.605308,152.472736,108041165
Comleroy Road Public School,Kurrajong,2758,Coed,Primary School,-33.506475,150.69763,115031300
Como Public School,Como,2226,Coed,Primary School,-34.001832,151.069127,128021536
Conargo Public School,Conargo,2710,Coed,Primary School,-35.305269,145.17886,109031183
Concord Public School,Concord,2137,Coed,Primary School,-33.863224,151.106944,120011383
Concord West Public School,Concord West,2138,Coed,Primary School,-33.839613,151.087317,120011384
Condobolin Public School,CONDOBOLIN,2877,Coed,Primary School,-33.085514,147.149077,103021062
Condong Public School,Condong,2484,Coed,Primary School,-28.309674,153.434424,112031252
Coniston Public School,Coniston,2500,Coed,Primary School,-34.439023,150.887435,107041548
Connells Point Public School,SOUTH HURSTVILLE,2221,Coed,Primary School,-33.984689,151.100306,119031374
Cooerwull Public School,Lithgow,2790,Coed,Primary School,-33.484053,150.142093,103031070
Coogee Public School,Coogee,2034,Coed,Primary School,-33.920819,151.249846,118021348
Coolah Central School,Coolah,2843,Coed,Central/Community School,-31.821024,149.723624,105031099
Coolamon Central School,Coolamon,2701,Coed,Central/Community School,-34.811904,147.201398,113031271
Shoalhaven Heads Public School,Shoalhaven Heads,2535,Coed,Primary School,-34.853167,150.740088,114011272
Coolongolook Public School,Coolongolook,2423,Coed,Primary School,-32.222798,152.318838,108011153
Cooma Public School,Cooma,2630,Coed,Primary School,-36.237474,149.125034,101031014
Coonabarabran Public School,Coonabarabran,2357,Coed,Primary School,-31.280039,149.282061,105031099
Coonamble Public School,COONAMBLE,2829,Coed,Primary School,-30.958363,148.387024,105011094
Coopernook Public School,Coopernook,2426,Coed,Primary School,-31.827512,152.607874,108051170
Coorabell Public School,Coorabell,2479,Coed,Primary School,-28.625696,153.487492,112011238
Cooranbong Public School,Cooranbong,2265,Coed,Primary School,-33.0805,151.441793,111021218
Cootamundra Public School,Cootamundra,2590,Coed,Primary School,-34.638914,148.026809,113031263
Copmanhurst Public School,Copmanhurst,2460,Coed,Primary School,-29.584663,152.775537,104011081
Coraki Public School,Coraki,2471,Coed,Primary School,-28.992589,153.282641,112021245
Coramba Public School,Coramba,2450,Coed,Primary School,-30.221578,153.011513,104021086
Corindi Public School,Corindi Beach,2456,Coed,Primary School,-30.021469,153.194234,104021091
Corndale Public School,Corndale,2480,Coed,Primary School,-28.71315,153.362489,112021249
Corowa Public School,Corowa,2646,Coed,Primary School,-35.992545,146.3949,109031180
Corowa South Public School,Corowa,2646,Coed,Primary School,-36.020988,146.376176,109031180
Corrimal Public School,Corrimal,2518,Coed,Primary School,-34.367371,150.899022,107041145
Coutts Crossing Public School,COUTTS CROSSING,2460,Coed,Primary School,-29.832063,152.889484,104011081
Cowan Public School,Cowan,2081,Coed,Primary School,-33.588808,151.168843,121021404
Cowper Public School,Cowper,2460,Coed,Primary School,-29.56956,153.077731,104011081
Cowra Public School,Cowra,2794,Coed,Primary School,-33.836028,148.68992,103021063
Crabbes Creek Public School,Crabbes Creek,2483,Coed,Primary School,-28.456004,153.496575,112031253
Crescent Head Public School,Crescent Head,2440,Coed,Primary School,-31.188089,152.970345,108021156
Cronulla Public School,Cronulla,2230,Coed,Primary School,-34.054077,151.14773,128011604
Crookwell Public School,Crookwell,2583,Coed,Primary School,-34.459938,149.469806,101051540
Crossmaglen Public School,Crossmaglen,2441,Coed,Primary School,-30.365945,152.981586,104021089
Buronga Public School,Buronga,2739,Coed,Primary School,-34.169471,142.181315,109021178
Crystal Creek Public School,CRYSTAL CREEK,2484,Coed,Primary School,-28.31214,153.32596,112031252
Cudal Public School,Cudal,2864,Coed,Primary School,-33.287099,148.740307,103041079
Cudgen Public School,Cudgen,2487,Coed,Primary School,-28.262592,153.555416,112031250
Culcairn Public School,Culcairn,2660,Coed,Primary School,-35.668284,147.039992,109011175
Cullen Bullen Public School,Cullen Bullen,2790,Coed,Primary School,-33.299877,150.032317,103031071
Cumnock Public School,Cumnock,2867,Coed,Primary School,-32.931277,148.749492,103041079
Cundletown Public School,Cundletown,2430,Coed,Primary School,-31.899733,152.522008,108051169
Curlewis Public School,Curlewis,2381,Coed,Primary School,-31.117149,150.263304,110041200
Currabubula Public School,Currabubula,2342,Coed,Primary School,-31.262787,150.73570900000001,110041201
Dalgety Public School,Dalgety,2628,Coed,Primary School,-36.502746,148.836675,101031016
Dalton Public School,Dalton,2581,Coed,Primary School,-34.720369,149.17882,101061542
Dapto Public School,HORSLEY,2530,Coed,Primary School,-34.494679,150.776781,107011132
Dareton Public School,Dareton,2717,Coed,Primary School,-34.091148,142.040358,109021178
Darlington Public School,Chippendale,2008,Coed,Primary School,-33.892638,151.18939,117031332
Darlington Point Public School,Darlington Point,2706,Coed,Primary School,-34.572807,145.993878,113011257
Leeville Public School,Leeville,2470,Coed,Primary School,-28.930843,153.003537,112021245
Deepwater Public School,Deepwater,2371,Coed,Primary School,-29.442908,151.848086,110021190
Dee Why Public School,Dee Why,2099,Coed,Primary School,-33.749025,151.285209,122031426
Delegate Public School,Delegate,2633,Coed,Primary School,-37.041739,148.937215,101031013
Delungra Public School,Delungra,2403,Coed,Primary School,-29.650936,150.830977,110021193
Denman Public School,Denman,2328,Coed,Primary School,-32.385734,150.686009,106041127
Doonside Public School,Doonside,2767,Coed,Primary School,-33.764557,150.870497,116011306
Dora Creek Public School,Dora Creek,2264,Coed,Primary School,-33.07902,151.499217,111021218
Double Bay Public School,Double Bay,2028,Coed,Primary School,-33.874856,151.240894,118011343
Doubtful Creek Public School,Doubtful Creek,2470,Coed,Primary School,-28.724771,152.875958,112021247
Douglas Park Public School,Douglas Park,2569,Coed,Primary School,-34.179484,150.713038,123031446
Drake Public School,Drake,2469,Coed,Primary School,-28.928798,152.374099,110021194
Drummoyne Public School,Drummoyne,2047,Coed,Primary School,-33.856073,151.153035,120011385
Dubbo Public School,Dubbo,2830,Coed,Primary School,-32.248749,148.60541,105031101
Dubbo North Public School,Dubbo,2830,Coed,Primary School,-32.24168,148.615776,105031100
Dudley Public School,Dudley,2290,Coed,Primary School,-32.989387,151.716816,111011208
Lismore Public School,Lismore,2480,Coed,Primary School,-28.814289,153.2909,112021248
Dundurrabin Public School,Dundurrabin,2453,Coed,Primary School,-30.189493,152.542649,104021087
Dunedoo Central School,Dunedoo,2844,Coed,Central/Community School,-32.018308,149.392212,103031074
Dungay Public School,Dungay,2484,Coed,Primary School,-28.289681,153.382374,112031252
Dungog Public School,Dungog,2420,Coed,Primary School,-32.405233,151.757709,106011110
Dungowan Public School,Dungowan,2340,Coed,Primary School,-31.220126,151.13269,110041205
Dunoon Public School,Dunoon,2480,Coed,Primary School,-28.686735,153.315495,112021249
Dural Public School,Dural,2158,Coed,Primary School,-33.686057,151.026394,115021297
Duranbah Public School,Duranbah,2487,Coed,Primary School,-28.289121,153.516888,112031253
Duri Public School,Duri,2344,Coed,Primary School,-31.221359,150.829939,110041205
Durrumbul Public School,Durrumbul,2482,Coed,Primary School,-28.523263,153.444576,112011243
Earlwood Public School,Earlwood,2206,Coed,Primary School,-33.928982,151.12238,119021364
Eastern Creek Public School,EASTERN CREEK,2766,Coed,Primary School,-33.787013,150.852624,116031319
Panania Public School,PANANIA,2213,Coed,Primary School,-33.965972,150.99946,119011359
Dubbo South Public School,Dubbo,2830,Coed,Primary School,-32.263126,148.609749,105031101
Ebenezer Public School,Ebenezer,2756,Coed,Primary School,-33.530917,150.876774,115031300
Ebor Public School,Ebor,2453,Coed,Primary School,-30.403293,152.349882,110011187
Eden Public School,Eden,2551,Coed,Primary School,-37.063271,149.906688,101041023
Congewai Public School,CONGEWAI,2325,Coed,Primary School,-32.958736,151.273875,106011109
Eglinton Public School,Eglinton,2795,Coed,Primary School,-33.37752,149.539343,103011058
Elands Public School,Elands,2429,Coed,Primary School,-31.619383,152.292291,108051170
Ellalong Public School,ELLALONG,2325,Coed,Primary School,-32.914749,151.311974,106011109
Ellerston Public School,Ellerston,2337,Coed,Primary School,-31.81773,151.304369,106041129
Eltham Public School,Eltham,2480,Coed,Primary School,-28.763663,153.408541,112021249
Emmaville Central School,Emmaville,2371,Coed,Central/Community School,-29.446152,151.601669,110021190
Empire Bay Public School,EMPIRE BAY,2257,Coed,Primary School,-33.504316,151.362889,102011029
Empire Vale Public School,Empire Vale,2478,Coed,Primary School,-28.915114,153.506059,112011237
Emu Plains Public School,Emu Plains,2750,Coed,Primary School,-33.755617,150.657739,124031459
Enfield Public School,Enfield,2136,Coed,Primary School,-33.888598,151.094528,120031393
Engadine Public School,Engadine,2233,Coed,Primary School,-34.06335,151.012431,128021607
The Entrance Public School,The Entrance,2261,Coed,Primary School,-33.346741,151.493009,102021053
Epping Public School,EPPING,2121,Coed,Primary School,-33.770727,151.087878,126011495
Epping West Public School,Epping,2121,Coed,Primary School,-33.772789,151.068048,126011495
Erina Heights Public School,Erina Heights,2260,Coed,Primary School,-33.428028,151.413585,102011031
Woodport Public School,Erina,2250,Coed,Primary School,-33.439347,151.37849,102011031
Ermington Public School,West Ryde,2114,Coed,Primary School,-33.804749,151.071574,126021503
Ettalong Public School,Ettalong Beach,2257,Coed,Primary School,-33.513539,151.332702,102011040
Euabalong West Public School,EUABALONG WEST,2877,Coed,Primary School,-33.05583,146.397128,105011093
Euchareena Public School,Euchareena,2866,Coed,Primary School,-32.937204,149.091542,105031106
Eugowra Public School,Eugowra,2806,Coed,Primary School,-33.423082,148.369286,103021065
Eumungerie Public School,Eumungerie,2831,Coed,Primary School,-31.951152,148.621075,105031103
Eungai Public School,Eungai Creek,2441,Coed,Primary School,-30.832071,152.874284,108021159
Eureka Public School,Eureka,2480,Coed,Primary School,-28.687657,153.439223,112011238
Eurongilly Public School,EURONGILLY,2663,Coed,Primary School,-34.91017,147.780957,113031265
Euston Public School,Euston,2737,Coed,Primary School,-34.575588,142.744248,109021179
Evans River Community School,EVANS HEAD,2473,Coed,Central/Community School,-29.113492,153.424683,112011241
Excelsior Public School,Castle Hill,2154,Coed,Primary School,-33.740444,150.990408,115011553
Exeter Public School,Exeter,2579,Coed,Primary School,-34.61612,150.321828,114021289
Fairfax Public School,Maules Creek,2382,Coed,Primary School,-30.493351,150.131265,110031198
Fairfield Public School,Fairfield,2165,Coed,Primary School,-33.866847,150.955409,127021515
Fairfield West Public School,Fairfield West,2165,Coed,Primary School,-33.868037,150.924762,127021516
Fairy Meadow Public School,Fairy Meadow,2519,Coed,Primary School,-34.390469,150.892302,107041144
Falls Creek Public School,Falls Creek,2540,Coed,Primary School,-34.965439,150.593403,114011281
Fassifern Public School,FASSIFERN,2283,Coed,Primary School,-32.983398,151.582769,111021219
Fingal Head Public School,Fingal Head,2487,Coed,Primary School,-28.196814,153.565122,112031250
Five Dock Public School,Five Dock,2046,Coed,Primary School,-33.866859,151.127318,120011386
Lord Howe Island Central School,Lord Howe Island,2898,Coed,Central/Community School,-31.530072,159.069032,108031161
Forbes Public School,Forbes,2871,Coed,Primary School,-33.387948,148.006385,103021065
Forest Hill Public School,Forest Hill,2651,Coed,Primary School,-35.147875,147.467,113031271
Forest Lodge Public School,Forest Lodge,2037,Coed,Primary School,-33.882169,151.181597,117031331
Forster Public School,Forster,2428,Coed,Primary School,-32.18247,152.524246,108011152
Fort Street Public School,Sydney,2000,Coed,Primary School,-33.860427,151.204871,117031337
Frederickton Public School,Frederickton,2440,Coed,Primary School,-31.033583,152.879353,108021155
Freemans Reach Public School,FREEMANS REACH,2756,Coed,Primary School,-33.558697,150.799309,115031300
Frenchs Forest Public School,Frenchs Forest,2086,Coed,Primary School,-33.751516,151.224695,122031428
Galston Public School,Galston,2159,Coed,Primary School,-33.648197,151.04517,115021298
Ganmain Public School,GANMAIN,2702,Coed,Primary School,-34.796923,147.040034,113031271
Garah Public School,Garah,2405,Coed,Primary School,-29.077177,149.634928,110031196
Gerogery Public School,GEROGERY,2642,Coed,Primary School,-35.83213,146.998143,109011175
Gerringong Public School,Gerringong,2534,Coed,Primary School,-34.749384,150.821499,107031140
Geurie Public School,GEURIE,2818,Coed,Primary School,-32.3961,148.82945,105031106
Sandy Hollow Public School,Sandy Hollow,2333,Coed,Primary School,-32.336471,150.569007,106041127
Gilgai Public School,Gilgai,2360,Coed,Primary School,-29.852694,151.115555,110021192
Gilgandra Public School,Gilgandra,2827,Coed,Primary School,-31.707981,148.66464,105031104
Gillieston Public School,Gillieston Heights,2321,Coed,Primary School,-32.75232,151.530713,106021114
Girilambone Public School,Girilambone,2831,Coed,Primary School,-31.24967,146.908851,105011095
Girraween Public School,Girraween,2145,Coed,Primary School,-33.799711,150.950356,125041588
Gladesville Public School,Gladesville,2111,Coed,Primary School,-33.832977,151.125699,126021498
Gladstone Public School,Gladstone,2440,Coed,Primary School,-31.026485,152.946508,108021156
Windang Public School,Windang,2528,Coed,Primary School,-34.531496,150.86597,107011547
Glenbrook Public School,Glenbrook,2773,Coed,Primary School,-33.765996,150.621286,124011450
Glenfield Public School,Glenfield,2167,Coed,Primary School,-33.971005,150.896584,123021442
Glenhaven Public School,Glenhaven,2156,Coed,Primary School,-33.700792,151.002882,115011294
Glen Innes Public School,Glen Innes,2370,Coed,Primary School,-29.735142,151.740989,110021190
Glenmore Road Public School,Paddington,2021,Coed,Primary School,-33.881385,151.230233,118011345
Glenorie Public School,Glenorie,2157,Coed,Primary School,-33.599444,151.008082,115021297
Glenquarry Public School,Glenquarry,2576,Coed,Primary School,-34.522335,150.483539,114021288
Glenreagh Public School,Glenreagh,2450,Coed,Primary School,-30.053582,152.976339,104011081
Glen William Public School,Clarence Town,2321,Coed,Primary School,-32.525391,151.79794,106011110
Glossodia Public School,Glossodia,2756,Coed,Primary School,-33.530504,150.765471,115031300
Gol Gol Public School,Gol Gol,2738,Coed,Primary School,-34.179608,142.222652,109021178
Goodooga Central School,GOODOOGA,2838,Coed,Central/Community School,-29.115865,147.455532,105011096
Goolgowi Public School,Goolgowi,2652,Coed,Primary School,-33.97571,145.709221,113011257
Goolma Public School,Goolma,2852,Coed,Primary School,-32.3688,149.26901,103031074
Goolmangar Public School,Goolmangar,2480,Coed,Primary School,-28.709747,153.23169,112021249
Gooloogong Public School,Gooloogong,2805,Coed,Primary School,-33.617104,148.436422,103021064
Goonellabah Public School,Goonellabah,2480,Coed,Primary School,-28.818329,153.322306,112021246
Goonengerry Public School,GOONENGERRY,2482,Coed,Primary School,-28.609512,153.439753,112011243
Gosford Public School,West Gosford,2250,Coed,Primary School,-33.42075,151.33449,102011032
Goulburn Public School,Goulburn,2580,Coed,Primary School,-34.750563,149.717773,101051539
Goulburn East Public School,Goulburn,2580,Coed,Primary School,-34.7626,149.730388,101051539
Goulburn North Public School,Goulburn North,2580,Coed,Primary School,-34.744579,149.735043,101051539
Goulburn South Public School,Goulburn,2580,Coed,Primary School,-34.76004,149.712314,101051539
Grafton Public School,Grafton,2460,Coed,Primary School,-29.68499,152.933325,104011080
South Grafton Public School,South Grafton,2460,Coed,Primary School,-29.709892,152.937126,104011080
Granville Public School,Granville,2142,Coed,Primary School,-33.834264,151.004671,125031481
Granville South Public School,Guildford,2161,Coed,Primary School,-33.848289,150.995883,125031483
Gravesend Public School,Gravesend,2401,Coed,Primary School,-29.585367,150.332417,110021193
Greenethorpe Public School,Greenethorpe,2809,Coed,Primary School,-33.997714,148.400139,103021066
Green Hill Public School,West Kempsey,2440,Coed,Primary School,-31.059616,152.802757,108021155
Green Valley Public School,Green Valley,2168,Coed,Primary School,-33.90074,150.868972,127011594
Greenwich Public School,Greenwich,2065,Coed,Primary School,-33.82587,151.183252,121011400
Grenfell Public School,Grenfell,2810,Coed,Primary School,-33.892296,148.167544,103021066
Gresford Public School,Gresford,2311,Coed,Primary School,-32.427628,151.538335,106011110
Greta Public School,GRETA,2334,Coed,Primary School,-32.680083,151.38721,106011107
Greystanes Public School,Greystanes,2145,Coed,Primary School,-33.828043,150.941111,125031482
Griffith Public School,Griffith,2680,Coed,Primary School,-34.291396,146.036252,113011256
Guildford Public School,Guildford,2161,Coed,Primary School,-33.855821,150.981983,125031484
Gulargambone Central School,Gulargambone,2828,Coed,Central/Community School,-31.33224,148.475758,105011094
Gulgong Public School,Gulgong,2852,Coed,Primary School,-32.359746,149.537692,103031074
Gulmarrad Public School,GULMARRAD,2463,Coed,Primary School,-29.489242,153.233572,104011082
Gum Flat Public School,Gum Flat,2360,Coed,Primary School,-29.779563,150.979221,110021193
Gundagai Public School,Gundagai,2722,Coed,Primary School,-35.052146,148.109174,113031264
Gundagai South Public School,SOUTH GUNDAGAI,2722,Coed,Primary School,-35.080802,148.103086,113031264
Gundaroo Public School,Gundaroo,2620,Coed,Primary School,-35.029909,149.267076,101061542
Gunnedah Public School,Gunnedah,2380,Coed,Primary School,-30.977491,150.256335,110041199
Gunning Public School,Gunning,2581,Coed,Primary School,-34.783525,149.265602,101061542
Guyra Central School,GUYRA,2365,Coed,Central/Community School,-30.222577,151.677369,110011187
Gwabegar Public School,Gwabegar,2356,Coed,Primary School,-30.611489,148.974999,110031198
Gymea Bay Public School,Gymea Bay,2227,Coed,Primary School,-34.046905,151.082825,128011529
Haberfield Public School,Haberfield,2045,Coed,Primary School,-33.879467,151.134002,120031395
Hammondville Public School,Hammondville,2170,Coed,Primary School,-33.947273,150.954525,127031524
Hampton Public School,Hampton,2790,Coed,Primary School,-33.648479,150.048925,103031071
Hannam Vale Public School,Hannam Vale,2443,Coed,Primary School,-31.712949,152.594024,108051170
Hanwood Public School,Hanwood,2680,Coed,Primary School,-34.329726,146.04237,113011257
Harbord Public School,Freshwater,2096,Coed,Primary School,-33.772164,151.286531,122031429
Hargraves Public School,Hargraves,2850,Coed,Primary School,-32.783336,149.461924,103031074
Harrington Public School,Harrington,2427,Coed,Primary School,-31.870234,152.688803,108051170
Harwood Island Public School,HARWOOD,2465,Coed,Primary School,-29.425605,153.240299,104011082
Hay Public School,HAY,2711,Coed,Primary School,-34.506048,144.84541,109021177
Heathcote Public School,Heathcote,2233,Coed,Primary School,-34.086704,151.007321,128021533
Helensburgh Public School,Helensburgh,2508,Coed,Primary School,-34.184207,150.988393,107041147
Henty Public School,Henty,2658,Coed,Primary School,-35.517474,147.031248,109011175
Hermidale Public School,Hermidale,2831,Coed,Primary School,-31.551165,146.723373,105011095
Hernani Public School,Dorrigo,2453,Coed,Primary School,-30.294514,152.422727,104021087
Herons Creek Public School,Herons Creek,2443,Coed,Primary School,-31.580394,152.729988,108041162
Hill End Public School,Hill End,2850,Coed,Primary School,-33.034573,149.415886,103011060
Hillside Public School,Glenorie,2157,Coed,Primary School,-33.601784,150.976151,115021297
Hillston Central School,Hillston,2675,Coed,Central/Community School,-33.479904,145.54026,113011257
Hill Top Public School,Hill Top,2575,Coed,Primary School,-34.354826,150.491396,114021285
Hinton Public School,Hinton,2321,Coed,Primary School,-32.716733,151.650674,106031123
Holbrook Public School,Holbrook,2644,Coed,Primary School,-35.717853,147.318953,109011175
Holgate Public School,Holgate,2250,Coed,Primary School,-33.405106,151.407722,102011031
Holmwood Public School,Cowra,2794,Coed,Primary School,-33.810597,148.756777,103021064
Homebush Public School,Homebush,2140,Coed,Primary School,-33.867319,151.08523,120031396
Telarah Public School,Maitland,2320,Coed,Primary School,-32.7252,151.532379,106021117
Horsley Park Public School,HORSLEY PARK,2175,Coed,Primary School,-33.840414,150.852683,127021518
Howlong Public School,Howlong,2643,Coed,Primary School,-35.979939,146.636764,109031181
Hoxton Park Public School,HOXTON PARK,2171,Coed,Primary School,-33.931881,150.849626,127011596
Humula Public School,Humula,2652,Coed,Primary School,-35.483339,147.760583,113031271
Hunters Hill Public School,Hunters Hill,2110,Coed,Primary School,-33.835121,151.151254,126021499
Huntingdon Public School,Wauchope,2446,Coed,Primary School,-31.478214,152.660607,108041165
Rathmines Public School,Rathmines,2283,Coed,Primary School,-33.042628,151.5899,111021220
Hurstville Public School,Hurstville,2220,Coed,Primary School,-33.964695,151.110728,119031368
Hurstville South Public School,Hurstville,2220,Coed,Primary School,-33.972516,151.099252,119031374
Huskisson Public School,Huskisson,2540,Coed,Primary School,-35.036821,150.668104,114011276
Ilford Public School,Ilford,2850,Coed,Primary School,-32.966702,149.855478,103031073
Illabo Public School,Illabo,2590,Coed,Primary School,-34.814002,147.741165,113031265
Iluka Public School,ILUKA,2466,Coed,Primary School,-29.404676,153.348938,104011082
Ingleburn Public School,Ingleburn,2565,Coed,Primary School,-34.000332,150.866612,123021440
Inverell Public School,Inverell,2360,Coed,Primary School,-29.773135,151.123016,110021191
Iona Public School,Woodville,2321,Coed,Primary School,-32.665063,151.604218,106031123
Islington Public School,Islington,2296,Coed,Primary School,-32.911412,151.744091,111031235
Ivanhoe Central School,Ivanhoe,2878,Coed,Central/Community School,-32.898531,144.300978,105021098
Fernleigh Public School,Fernleigh,2479,Coed,Primary School,-28.76765,153.498399,112011237
Jamberoo Public School,Jamberoo,2533,Coed,Primary School,-34.644622,150.773003,107031140
Jennings Public School,JENNINGS,4383,Coed,Primary School,-28.927243,151.934357,110021194
Jerangle Public School,JERANGLE,2630,Coed,Primary School,-35.871132,149.364268,101031015
Jerilderie Public School,Jerilderie,2716,Coed,Primary School,-35.354598,145.728865,109031185
Jerrys Plains Public School,Jerrys Plains,2330,Coed,Primary School,-32.49723,150.905944,106011113
Jesmond Public School,Jesmond,2299,Coed,Primary School,-32.903841,151.695427,111031231
Jiggi Public School,Jiggi,2480,Coed,Primary School,-28.677986,153.181368,112021249
Jilliby Public School,Wyong,2259,Coed,Primary School,-33.239937,151.380052,102021049
Jindabyne Central School,Jindabyne,2627,Coed,Central/Community School,-36.416703,148.618901,101031016
Jindera Public School,Jindera,2642,Coed,Primary School,-35.959036,146.886741,109011175
Johns River Public School,Johns River,2443,Coed,Primary School,-31.733013,152.696599,108051170
Jugiong Public School,NA,2726,Coed,Primary School,-34.820203,148.335447,101061542
The Junction Public School,Merewether,2291,Coed,Primary School,-32.939964,151.758644,111031228
Junee Public School,Junee,2663,Coed,Primary School,-34.873488,147.584901,113031265
Junee North Public School,Junee,2663,Coed,Primary School,-34.855049,147.585376,113031265
Kandos Public School,Kandos,2848,Coed,Primary School,-32.856242,149.974813,103031073
Kangaloon Public School,Kangaloon,2576,Coed,Primary School,-34.552607,150.529555,114021288
Kangaroo Valley Public School,Kangaroo Valley,2577,Coed,Primary School,-34.73652,150.531996,114011272
Kanwal Public School,Kanwal,2259,Coed,Primary School,-33.262456,151.484884,102021048
Karangi Public School,Karangi,2450,Coed,Primary School,-30.252411,153.047767,104021086
Karuah Public School,Karuah,2324,Coed,Primary School,-32.654344,151.966595,106031125
Kearsley Public School,KEARSLEY,2325,Coed,Primary School,-32.857249,151.395921,106011108
Kegworth Public School,Leichhardt,2040,Coed,Primary School,-33.886514,151.14693,120021388
Keiraville Public School,Keiraville,2500,Coed,Primary School,-34.414114,150.873364,107041146
Kellys Plains Public School,Armidale,2350,Coed,Primary School,-30.571911,151.636504,110011188
Kellyville Public School,KELLYVILLE,2155,Coed,Primary School,-33.711052,150.957887,115011559
Kelso Public School,Kelso,2795,Coed,Primary School,-33.416969,149.605156,103011059
Kempsey East Public School,Kempsey,2440,Coed,Primary School,-31.083703,152.846861,108021155
Kempsey West Public School,WEST KEMPSEY,2440,Coed,Primary School,-31.078377,152.8301,108021155
Kendall Public School,Kendall,2439,Coed,Primary School,-31.627392,152.702756,108041162
Kensington Public School,KENSINGTON,2033,Coed,Primary School,-33.909604,151.224965,118021564
Kenthurst Public School,KENTHURST,2156,Coed,Primary School,-33.665603,151.004575,115021297
Kentlyn Public School,Campbelltown,2560,Coed,Primary School,-34.073132,150.858576,123021441
Kentucky Public School,Kentucky,2354,Coed,Primary School,-30.759618,151.449162,110011188
Kiama Public School,KIAMA,2533,Coed,Primary School,-34.669659,150.850567,107031138
Kinchela Public School,Kinchela,2440,Coed,Primary School,-30.991064,152.995063,108021156
Kincumber Public School,Kincumber,2251,Coed,Primary School,-33.468184,151.394355,102011034
Kingsgrove Public School,Kingsgrove,2208,Coed,Primary School,-33.947822,151.10156,119041377
Bexley North Public School,Bexley,2207,Coed,Primary School,-33.940838,151.120374,119041377
Kingstown Public School,KINGSTOWN,2358,Coed,Primary School,-30.506681,151.116405,110011188
Kingswood Public School,Kingswood,2747,Coed,Primary School,-33.765884,150.726509,124031462
Kirkton Public School,BELFORD,2335,Coed,Primary School,-32.609773,151.290092,106011107
Kitchener Public School,KITCHENER,2325,Coed,Primary School,-32.87782,151.369977,106011109
Kogarah Public School,Kogarah,2217,Coed,Primary School,-33.962028,151.136618,119041378
Koorawatha Public School,KOORAWATHA,2807,Coed,Primary School,-34.034936,148.559705,101061544
Kootingal Public School,KOOTINGAL,2352,Coed,Primary School,-31.053487,151.053682,110041205
Kororo Public School,KORORA,2450,Coed,Primary School,-30.254553,153.131921,104021088
Krambach Public School,Krambach,2429,Coed,Primary School,-32.046146,152.272293,108051170
Kulnura Public School,Kulnura,2250,Coed,Primary School,-33.232582,151.216011,102011030
Kurmond Public School,Kurmond,2757,Coed,Primary School,-33.549715,150.692309,115031300
Kurnell Public School,Kurnell,2231,Coed,Primary School,-34.010156,151.203773,128011604
Kurrajong Public School,Kurrajong,2758,Coed,Primary School,-33.555196,150.662653,115031300
Kurrajong East Public School,EAST KURRAJONG,2758,Coed,Primary School,-33.511172,150.77726,115031300
Kurrajong North Public School,KURRAJONG HILLS,2758,Coed,Primary School,-33.541815,150.639446,115031300
Kyogle Public School,Kyogle,2474,Coed,Primary School,-28.625165,153.003916,112021247
Ladysmith Public School,Ladysmith,2652,Coed,Primary School,-35.208549,147.510963,113031271
Laggan Public School,Laggan,2583,Coed,Primary School,-34.406246,149.527721,101051540
Laguna Public School,Laguna,2325,Coed,Primary School,-32.992121,151.130526,106011109
Lake Albert Public School,Lake Albert,2650,Coed,Primary School,-35.173563,147.37924,113031267
Lake Cargelligo Central School,LAKE CARGELLIGO,2672,Coed,Central/Community School,-33.294836,146.373966,103021062
Lakemba Public School,Lakemba,2195,Coed,Primary School,-33.923615,151.070046,119021574
Lake Munmorah Public School,Lake Munmorah,2259,Coed,Primary School,-33.1882,151.575559,102021050
Lake Wyangan Public School,Lake Wyangan,2680,Coed,Primary School,-34.248183,146.034238,113011257
Lambton Public School,LAMBTON,2299,Coed,Primary School,-32.911705,151.704134,111031225
Lane Cove Public School,Lane Cove,2066,Coed,Primary School,-33.816514,151.169134,121011400
Lansdowne Public School,Lansdowne,2430,Coed,Primary School,-31.783944,152.532056,108051170
Upper Lansdowne Public School,Upper Lansdowne,2430,Coed,Primary School,-31.705206,152.467389,108051170
La Perouse Public School,La Perouse,2036,Coed,Primary School,-33.978352,151.235423,118021350
Largs Public School,Largs,2320,Coed,Primary School,-32.700491,151.60564,106021116
Larnook Public School,LARNOOK,2480,Coed,Primary School,-28.648612,153.114765,112021249
Laurieton Public School,Laurieton,2443,Coed,Primary School,-31.651768,152.797491,108041162
Lavington Public School,Lavington,2641,Coed,Primary School,-36.037411,146.928265,109011176
Lawrence Public School,Lawrence,2460,Coed,Primary School,-29.491625,153.100368,104011081
Lawson Public School,Lawson,2783,Coed,Primary School,-33.721217,150.428243,124011453
Leeton Public School,Leeton,2705,Coed,Primary School,-34.546126,146.407232,113011258
Leura Public School,Leura,2780,Coed,Primary School,-33.711151,150.336733,124011452
Lidcombe Public School,Lidcombe,2141,Coed,Primary School,-33.861019,151.046926,125011586
Lightning Ridge Central School,LIGHTNING RIDGE,2834,Coed,Central/Community School,-29.425211,147.978614,105011096
Lindfield Public School,Lindfield,2070,Coed,Primary School,-33.78075,151.168917,121031408
Lindfield East Public School,East Lindfield,2070,Coed,Primary School,-33.767479,151.18429,121031408
Lisarow Public School,LISAROW,2250,Coed,Primary School,-33.381283,151.376296,102011036
Lismore South Public School,South Lismore,2480,Coed,Primary School,-28.809502,153.262056,112021248
Lithgow Public School,Lithgow,2790,Coed,Primary School,-33.482092,150.160227,103031070
Llandilo Public School,Llandilo,2747,Coed,Primary School,-33.707237,150.751783,124031458
Lochinvar Public School,Lochinvar,2321,Coed,Primary School,-32.700305,151.451988,106021117
Lockhart Central School,Lockhart,2656,Coed,Central/Community School,-35.222753,146.714747,113031271
Londonderry Public School,Londonderry,2753,Coed,Primary School,-33.647454,150.736905,124041468
Long Flat Public School,LONG FLAT,2446,Coed,Primary School,-31.437823,152.48612,108041165
Lowanna Public School,Lowanna,2450,Coed,Primary School,-30.20722,152.899923,104021087
Lowesdale Public School,Lowesdale,2646,Coed,Primary School,-35.856229,146.368662,109031181
Luddenham Public School,LUDDENHAM,2745,Coed,Primary School,-33.881331,150.691523,124031463
Lue Public School,Lue,2850,Coed,Primary School,-32.656339,149.844616,103031074
Lyndhurst Public School,Lyndhurst,2797,Coed,Primary School,-33.673266,149.044914,103041076
Macdonald Valley Public School,CENTRAL MACDONALD,2775,Coed,Primary School,-33.321271,150.971993,115031299
Macksville Public School,Macksville,2447,Coed,Primary School,-30.707763,152.917145,108021157
Maimuru Public School,Maimuru,2594,Coed,Primary School,-34.243066,148.214319,101061544
Maitland East Public School,EAST MAITLAND,2323,Coed,Primary School,-32.748991,151.585256,106021115
Malabar Public School,MALABAR,2036,Coed,Primary School,-33.962214,151.248559,118021350
Mandurama Public School,Mandurama,2792,Coed,Primary School,-33.65148,149.069495,103041076
Manifold Public School,Bentley,2480,Coed,Primary School,-28.749066,153.077066,112021245
Manildra Public School,MANILDRA,2865,Coed,Primary School,-33.184214,148.700122,103041079
Manly West Public School,Balgowlah,2093,Coed,Primary School,-33.791875,151.268753,122011418
Maraylya Public School,Maraylya,2765,Coed,Primary School,-33.592681,150.916264,115041301
Pelican Flat Public School,PELICAN,2281,Coed,Primary School,-33.074333,151.648248,111011207
Maroota Public School,MAROOTA,2756,Coed,Primary School,-33.455283,150.99365,115021297
Maroubra Bay Public School,Maroubra,2035,Coed,Primary School,-33.944236,151.253017,118021567
Marrar Public School,Marrar,2652,Coed,Primary School,-34.828341,147.355155,113031271
Marsden Park Public School,MARSDEN PARK,2765,Coed,Primary School,-33.696425,150.833642,116021312
Martindale Public School,Martindale,2328,Coed,Primary School,-32.458834,150.665723,106041127
Martins Creek Public School,Martins Creek,2420,Coed,Primary School,-32.565996,151.623453,106011110
Martins Gully Public School,Armidale,2350,Coed,Primary School,-30.523938,151.637256,110011186
Marulan Public School,Marulan,2579,Coed,Primary School,-34.713399,150.006603,101051540
Mascot Public School,Mascot,2020,Coed,Primary School,-33.928577,151.192485,117011322
Mathoura Public School,Mathoura,2710,Coed,Primary School,-35.816079,144.902097,109031183
Matong Public School,MATONG,2652,Coed,Primary School,-34.770061,146.927303,113031271
Matraville Public School,Matraville,2036,Coed,Primary School,-33.955064,151.229111,117011323
Mayfield East Public School,Mayfield East,2304,Coed,Primary School,-32.89536,151.748666,111031227
Mayfield West Public School,Mayfield,2304,Coed,Primary School,-32.888697,151.730116,111031227
Mayrung Public School,Deniliquin,2710,Coed,Primary School,-35.464317,145.30879,109031183
Meadow Flat Public School,MEADOW FLAT,2795,Coed,Primary School,-33.433726,149.920456,103031071
The Meadows Public School,Seven Hills,2147,Coed,Primary School,-33.781365,150.942567,116011308
Medlow Public School,UPPER TAYLORS ARM,2447,Coed,Primary School,-30.779087,152.69016,108021159
Medowie Public School,Medowie,2318,Coed,Primary School,-32.738245,151.85406,106031125
Megalong Public School,Megalong,2785,Coed,Primary School,-33.715301,150.232582,124011449
Menai Public School,Menai,2234,Coed,Primary School,-34.01213,151.006587,128021535
Mendooran Central School,MENDOORAN,2842,Coed,Central/Community School,-31.818731,149.122445,105031099
Menindee Central School,MENINDEE,2879,Coed,Central/Community School,-32.393368,142.41329,105021098
Merewether Public School,MEREWETHER,2291,Coed,Primary School,-32.937547,151.742152,111031228
Merimbula Public School,MERIMBULA,2548,Coed,Primary School,-36.886525,149.916952,101041025
Merriwa Central School,MERRIWA,2329,Coed,Central/Community School,-32.145113,150.352867,106041129
Merrylands Public School,Merrylands,2160,Coed,Primary School,-33.840516,150.976047,125031485
Bonnells Bay Public School,Bonnells Bay,2264,Coed,Primary School,-33.114489,151.516783,111021216
Michelago Public School,Michelago,2620,Coed,Primary School,-35.705975,149.161716,101021011
Middle Dural Public School,Middle Dural,2158,Coed,Primary School,-33.64496,151.023178,115021297
Middle Harbour Public School,Mosman,2088,Coed,Primary School,-33.82282,151.2327,121041415
Milbrodale Public School,MILBRODALE,2330,Coed,Primary School,-32.696789,151.005819,106011113
Millers Forest Public School,MILLERS FOREST,2324,Coed,Primary School,-32.752067,151.703724,106021118
Millfield Public School,Millfield,2325,Coed,Primary School,-32.889837,151.250774,106011109
Millthorpe Public School,Millthorpe,2798,Coed,Primary School,-33.445146,149.185939,103041076
Milperra Public School,Milperra,2214,Coed,Primary School,-33.942077,150.979779,119011359
Milton Public School,Milton,2538,Coed,Primary School,-35.314149,150.435816,114011282
Minmi Public School,Minmi,2287,Coed,Primary School,-32.876125,151.617471,111031226
Minto Public School,Minto,2566,Coed,Primary School,-34.029979,150.847266,123021443
Miranda Public School,MIRANDA,2228,Coed,Primary School,-34.034645,151.097405,128011530
Mitchells Island Public School,Mitchells Island,2430,Coed,Primary School,-31.896762,152.614054,108051168
Mittagong Public School,Mittagong,2575,Coed,Primary School,-34.448044,150.44438,114021286
Moama Public School,Moama,2731,Coed,Primary School,-36.115314,144.762821,109031184
Modanville Public School,Lismore,2480,Coed,Primary School,-28.730204,153.297192,112021249
Mogo Public School,Mogo,2536,Coed,Primary School,-35.786091,150.140569,101041024
Molong Central School,Molong,2866,Coed,Central/Community School,-33.098011,148.86389,103041079
Mona Vale Public School,Mona Vale,2103,Coed,Primary School,-33.676998,151.300404,122021423
Monteagle Public School,Monteagle,2594,Coed,Primary School,-34.192994,148.34725,101061544
Moonbi Public School,Moonbi,2353,Coed,Primary School,-31.019752,151.073573,110041205
Moorland Public School,MOORLAND,2443,Coed,Primary School,-31.769631,152.651174,108051170
Moree Public School,Moree,2400,Coed,Primary School,-29.466194,149.837564,110031195
Morisset Public School,MORISSET,2264,Coed,Primary School,-33.103543,151.489583,111021218
Morpeth Public School,Morpeth,2321,Coed,Primary School,-32.725663,151.632128,106021115
Mortdale Public School,Mortdale,2223,Coed,Primary School,-33.972901,151.080995,119031371
Mortlake Public School,Concord,2137,Coed,Primary School,-33.849829,151.103861,120011383
Moruya Public School,Moruya,2537,Coed,Primary School,-35.912616,150.076453,101041026
Moss Vale Public School,Moss Vale,2577,Coed,Primary School,-34.550639,150.366434,114021287
Moulamein Public School,Moulamein,2733,Coed,Primary School,-35.08927,144.032816,109031183
Mount George Public School,Mount George,2424,Coed,Primary School,-31.880982,152.179633,108051170
Mount Hunter Public School,Camden,2570,Coed,Primary School,-34.07177,150.63643,123031448
Mount Kanwary Public School,Osterley,2324,Coed,Primary School,-32.724187,151.699146,106031123
Mount Keira Public School,Mount Keira,2500,Coed,Primary School,-34.411383,150.856224,107041146
Mount Kembla Public School,Mount Kembla,2526,Coed,Primary School,-34.432399,150.817114,107011134
Mount Pleasant Public School,SINGLETON,2330,Coed,Primary School,-32.408483,151.188781,106011113
Mount Pritchard Public School,Mount Pritchard,2170,Coed,Primary School,-33.899845,150.900007,127021512
Mount Victoria Public School,Mount Victoria,2786,Coed,Primary School,-33.591334,150.253883,124011449
Mudgee Public School,Mudgee,2850,Coed,Primary School,-32.59594,149.583964,103031072
Mulbring Public School,Mulbring,2323,Coed,Primary School,-32.901304,151.478563,106011109
Mulgoa Public School,NA,2745,Coed,Primary School,-33.836505,150.650344,124031463
Mullaley Public School,Mullaley,2379,Coed,Primary School,-31.098657,149.906668,110041200
Mullion Creek Public School,Mullion Creek,2800,Coed,Primary School,-33.139031,149.120501,103041079
Mullumbimby Public School,Mullumbimby,2482,Coed,Primary School,-28.552011,153.505937,112011243
Mulwala Public School,MULWALA,2647,Coed,Primary School,-35.987094,146.006624,109031181
Clergate Public School,Clergate,2800,Coed,Primary School,-33.192057,149.112293,103041079
Mumbil Public School,Mumbil,2820,Coed,Primary School,-32.722371,149.052673,105031106
Mummulgum Public School,Mummulgum,2469,Coed,Primary School,-28.848015,152.801645,112021245
Mungindi Central School,MUNGINDI,2406,Coed,Central/Community School,-28.9802,148.99085,110031196
Murringo Public School,MURRINGO,2586,Coed,Primary School,-34.297202,148.515471,101061544
Murrumburrah Public School,MURRUMBURRAH,2587,Coed,Primary School,-34.550826,148.359862,101061544
Murrurundi Public School,Murrurundi,2338,Coed,Primary School,-31.762783,150.832187,106041129
Murwillumbah Public School,Murwillumbah,2484,Coed,Primary School,-28.329886,153.391139,112031251
Muswellbrook Public School,Muswellbrook,2333,Coed,Primary School,-32.25843,150.896369,106041126
Nabiac Public School,NABIAC,2312,Coed,Primary School,-32.097544,152.381902,108011153
Nambucca Heads Public School,Nambucca Heads,2448,Coed,Primary School,-30.641695,153.006338,108021158
Nana Glen Public School,Nana Glen,2450,Coed,Primary School,-30.135619,153.006206,104021086
Nangus Public School,Nangus,2722,Coed,Primary School,-35.053902,147.909106,113031264
Naradhan Public School,Naradhan,2669,Coed,Primary School,-33.615639,146.327405,103021069
Narara Public School,Lisarow,2250,Coed,Primary School,-33.387915,151.362616,102011036
Narellan Public School,Narellan,2567,Coed,Primary School,-34.042764,150.733769,123011434
Narrabeen Lakes Public School,Narrabeen,2101,Coed,Primary School,-33.720323,151.297413,122031431
Narrabri Public School,Narrabri,2390,Coed,Primary School,-30.324942,149.785252,110031197
Narrabri West Public School,Narrabri,2390,Coed,Primary School,-30.344469,149.763906,110031197
Narrandera Public School,Narrandera,2700,Coed,Primary School,-34.744466,146.547854,113011259
Narromine Public School,Narromine,2821,Coed,Primary School,-32.229903,148.244421,105031105
Nashdale Public School,Nashdale,2800,Coed,Primary School,-33.293794,149.013466,103041079
Tomaree Public School,Salamander Bay,2317,Coed,Primary School,-32.737699,152.113091,106031121
Nemingha Public School,Nemingha,2340,Coed,Primary School,-31.126524,151.004156,110041203
Neutral Bay Public School,Neutral Bay,2089,Coed,Primary School,-33.83261,151.219605,121041416
Neville Public School,Neville,2799,Coed,Primary School,-33.708658,149.216784,103041076
Newcastle East Public School,Newcastle,2300,Coed,Primary School,-32.930285,151.776915,111031229
New Lambton Public School,New Lambton,2305,Coed,Primary School,-32.922604,151.712784,111031225
Newport Public School,Newport,2106,Coed,Primary School,-33.660561,151.312237,122021422
Newrybar Public School,Newrybar,2479,Coed,Primary School,-28.717114,153.533055,112011237
Newtown North Public School,Newtown,2042,Coed,Primary School,-33.891821,151.185392,117031332
Niangala Public School,Niangala,2354,Coed,Primary School,-31.298041,151.408619,110011189
Nicholson Street Public School,Balmain East,2041,Coed,Primary School,-33.855744,151.193188,120021387
Nimbin Central School,Nimbin,2480,Coed,Central/Community School,-28.595871,153.220891,112021249
Nimmitabel Public School,NIMMITABEL,2631,Coed,Primary School,-36.510937,149.289599,101031015
Narooma Public School,Narooma,2546,Coed,Primary School,-36.218595,150.137335,101041027
Nords Wharf Public School,Nords Wharf,2281,Coed,Primary School,-33.135817,151.605087,111011212
Normanhurst Public School,Normanhurst,2076,Coed,Primary School,-33.723332,151.098026,121021406
Northbridge Public School,Northbridge,2063,Coed,Primary School,-33.813034,151.218597,121011402
Northmead Public School,Northmead,2152,Coed,Primary School,-33.786511,150.990753,125041491
North Rocks Public School,North Rocks,2151,Coed,Primary School,-33.768425,151.025148,125041490
North Star Public School,North Star,2408,Coed,Primary School,-28.926653,150.392891,110031196
North Sydney Public School,Waverton,2060,Coed,Primary School,-33.834819,151.203685,121041417
Nowendoc Public School,Nowendoc,2354,Coed,Primary School,-31.48295,151.71536,110011189
Nowra Public School,NOWRA,2541,Coed,Primary School,-34.879407,150.60052,114011278
Nulkaba Public School,NULKABA,2325,Coed,Primary School,-32.810691,151.34781,106011108
Nundle Public School,Nundle,2340,Coed,Primary School,-31.459684,151.127429,110041205
Nymboida Public School,Nymboida,2460,Coed,Primary School,-29.947482,152.727964,104011081
Nyngan Public School,Nyngan,2825,Coed,Primary School,-31.568398,147.195259,105011095
Oakdale Public School,Oakdale,2570,Coed,Primary School,-34.078907,150.508197,123031448
Oaklands Central School,Oaklands,2646,Coed,Central/Community School,-35.552669,146.171768,109031181
The Oaks Public School,THE OAKS,2570,Coed,Primary School,-34.078385,150.571724,123031448
Oakville Public School,Oakville,2765,Coed,Primary School,-33.620452,150.87054,115041301
Oatley Public School,OATLEY,2223,Coed,Primary School,-33.983741,151.080332,119031371
Oberon Public School,OBERON,2787,Coed,Primary School,-33.703254,149.864517,103011061
O'Connell Public School,O'Connell,2795,Coed,Primary School,-33.524513,149.720076,103011060
Old Bar Public School,Old Bar,2430,Coed,Primary School,-31.972339,152.588536,108051168
Old Bonalbo Public School,OLD BONALBO,2469,Coed,Primary School,-28.654622,152.597413,112021245
Old Guildford Public School,Guildford,2161,Coed,Primary School,-33.867484,150.986508,125031480
Orange East Public School,Orange,2800,Coed,Primary School,-33.282069,149.113698,103041077
Orange Grove Public School,Leichhardt,2040,Coed,Primary School,-33.872278,151.158678,120021389
Orara Upper Public School,UPPER ORARA,2450,Coed,Primary School,-30.289005,153.01324,104021086
Orchard Hills Public School,Orchard Hills,2748,Coed,Primary School,-33.783029,150.721365,124031463
Otford Public School,Otford,2508,Coed,Primary School,-34.212198,151.001507,107041147
Ourimbah Public School,Ourimbah,2258,Coed,Primary School,-33.354916,151.368168,102021051
Padstow Park Public School,Padstow,2211,Coed,Primary School,-33.954955,151.030882,119011358
Pallamallawa Public School,PALLAMALLAWA,2399,Coed,Primary School,-29.473894,150.141464,110031196
Palmers Island Public School,Palmers Island,2463,Coed,Primary School,-29.419567,153.28822,104011082
Pambula Public School,Pambula,2549,Coed,Primary School,-36.925482,149.871813,101041025
Parkes Public School,Parkes,2870,Coed,Primary School,-33.13229,148.176314,103021067
Parklea Public School,GLENWOOD,2768,Coed,Primary School,-33.725885,150.93476,116021309
Parramatta Public School,PARRAMATTA,2150,Coed,Primary School,-33.81571,151.007732,125041492
Wooli Public School,Wooli,2462,Coed,Primary School,-29.870923,153.265781,104011081
Parramatta North Public School,NORTH PARRAMATTA,2151,Coed,Primary School,-33.803951,151.004694,125041489
Parramatta West Public School,Parramatta,2150,Coed,Primary School,-33.824472,150.990968,125041492
Paterson Public School,Paterson,2421,Coed,Primary School,-32.602294,151.612319,106011110
Paxton Public School,Paxton,2325,Coed,Primary School,-32.900993,151.284621,106011109
Peak Hill Central School,Peak Hill,2869,Coed,Central/Community School,-32.728855,148.192111,103021068
Peakhurst Public School,PEAKHURST,2210,Coed,Primary School,-33.955402,151.062306,119031372
Peats Ridge Public School,PEATS RIDGE,2250,Coed,Primary School,-33.325841,151.23275,102011030
Pelaw Main Public School,Pelaw Main,2327,Coed,Primary School,-32.831923,151.484743,106011111
Pennant Hills Public School,Pennant Hills,2120,Coed,Primary School,-33.7358,151.068058,126011496
West Pennant Hills Public School,West Pennant Hills,2125,Coed,Primary School,-33.746075,151.050491,126011496
Penrith Public School,Penrith,2750,Coed,Primary School,-33.755926,150.70439,124031464
Penrose Public School,Penrose,2579,Coed,Primary School,-34.669731,150.221344,114021289
Penshurst Public School,Penshurst,2222,Coed,Primary School,-33.962636,151.087702,119031369
Perthville Public School,Perthville,2795,Coed,Primary School,-33.491052,149.550052,103011060
Picton Public School,Picton,2571,Coed,Primary School,-34.17624,150.609346,123031447
Pilliga Public School,Pilliga,2388,Coed,Primary School,-30.352248,148.889152,110031198
Pitt Town Public School,Pitt Town,2756,Coed,Primary School,-33.583887,150.859638,115041301
Pleasant Hills Public School,Pleasant Hills,2658,Coed,Primary School,-35.46651,146.798512,113031271
Plumpton Public School,Plumpton,2761,Coed,Primary School,-33.749158,150.838556,116031315
The Pocket Public School,The Pocket,2483,Coed,Primary School,-28.505414,153.479112,112011243
Pomona Public School,Pomona,2648,Coed,Primary School,-34.025726,141.89493,109021179
Pooncarie Public School,Pooncarie,2648,Coed,Primary School,-33.383033,142.568324,109021179
Port Kembla Public School,Port Kembla,2505,Coed,Primary School,-34.48609,150.914724,107011546
Portland Central School,PORTLAND,2847,Coed,Central/Community School,-33.354772,149.979653,103031071
Port Macquarie Public School,Port Macquarie,2444,Coed,Primary School,-31.429869,152.913872,108041163
Prestons Public School,Prestons,2170,Coed,Primary School,-33.94642,150.889961,127031600
Pretty Beach Public School,PRETTY BEACH,2257,Coed,Primary School,-33.528039,151.350019,102011029
Primbee Public School,Primbee,2502,Coed,Primary School,-34.501421,150.882302,107011547
Punchbowl Public School,PUNCHBOWL,2196,Coed,Primary School,-33.930613,151.055905,119021366
Putney Public School,Ryde,2112,Coed,Primary School,-33.824562,151.110973,126021590
Quaama Public School,Quaama,2550,Coed,Primary School,-36.464226,149.86705,101041020
Quakers Hill Public School,Quakers Hill,2763,Coed,Primary School,-33.737467,150.885265,116011304
Quambone Public School,Quambone,2831,Coed,Primary School,-30.930706,147.872001,105011094
Quandialla Public School,Quandialla,2721,Coed,Primary School,-34.010362,147.790454,103021066
Queanbeyan Public School,Queanbeyan,2620,Coed,Primary School,-35.357526,149.236154,101021009
Leppington Public School,Leppington,2179,Coed,Primary School,-33.959269,150.810901,127011506
Raglan Public School,Raglan,2795,Coed,Primary School,-33.428034,149.648098,103011059
Rainbow Street Public School,RANDWICK,2031,Coed,Primary School,-33.924647,151.237164,118021570
Raleigh Public School,Raleigh,2454,Coed,Primary School,-30.450064,153.012586,104021090
Rand Public School,Rand,2642,Coed,Primary School,-35.596087,146.580442,109031181
Rankins Springs Public School,Rankins Springs,2669,Coed,Primary School,-33.83998,146.258245,113011257
Rappville Public School,RAPPVILLE,2469,Coed,Primary School,-29.085815,152.95533,112021245
Raymond Terrace Public School,Raymond Terrace,2324,Coed,Primary School,-32.767016,151.74001,106031122
Redhead Public School,Redhead,2290,Coed,Primary School,-33.011646,151.711425,111011211
Red Range Public School,Red Range,2370,Coed,Primary School,-29.776132,151.897373,110021190
Regents Park Public School,Regents Park,2143,Coed,Primary School,-33.885518,151.024693,125011587
Regentville Public School,Regentville,2745,Coed,Primary School,-33.77728,150.668311,124031460
Repton Public School,REPTON,2454,Coed,Primary School,-30.446021000000002,153.029037,104021090
Revesby Public School,Revesby,2212,Coed,Primary School,-33.944449,151.017145,119011360
Richmond North Public School,NORTH RICHMOND,2754,Coed,Primary School,-33.580591,150.716871,124041466
The Risk Public School,THE RISK,2474,Coed,Primary School,-28.476943,152.93397,112021247
Riverstone Public School,Riverstone,2765,Coed,Primary School,-33.678387,150.871019,116021312
Robertson Public School,ROBERTSON,2577,Coed,Primary School,-34.589625,150.592483,114021288
Rockdale Public School,Rockdale,2216,Coed,Primary School,-33.952626,151.141681,119041381
Rockley Public School,Rockley,2795,Coed,Primary School,-33.69193,149.562554,103011060
The Rock Central School,The Rock,2655,Coed,Central/Community School,-35.266335,147.115239,113031271
Whian Whian Public School,Whian Whian,2480,Coed,Primary School,-28.638212,153.314317,112021249
Rocky River Public School,Uralla,2358,Coed,Primary School,-30.612856,151.491788,110011188
Rollands Plains Upper Public School,Rollands Plains,2441,Coed,Primary School,-31.239302,152.63180500000001,108041165
Rosebank Public School,Rosebank,2480,Coed,Primary School,-28.678336,153.388262,112021249
Rose Bay Public School,Rose Bay,2029,Coed,Primary School,-33.873011,151.270962,118011346
Roseville Public School,Roseville,2069,Coed,Primary School,-33.781883,151.188666,121031408
Rosewood Public School,ROSEWOOD,2652,Coed,Primary School,-35.670202,147.860832,113021260
Ross Hill Public School,Inverell,2360,Coed,Primary School,-29.770176,151.103091,110021191
Rossmore Public School,Rossmore,2171,Coed,Primary School,-33.946493,150.770857,127011506
Rous Public School,Alstonville,2477,Coed,Primary School,-28.870683,153.406624,112011237
Rouse Hill Public School,Rouse Hill,2155,Coed,Primary School,-33.679219,150.920985,115041302
Rukenvale Public School,Rukenvale,2474,Coed,Primary School,-28.468321,152.894396,112021247
Rydalmere Public School,RYDALMERE,2116,Coed,Primary School,-33.814317,151.044705,125021477
Ryde Public School,Ryde,2112,Coed,Primary School,-33.812552,151.108015,126021591
North Ryde Public School,North Ryde,2113,Coed,Primary School,-33.794766,151.120042,126021501
West Ryde Public School,West Ryde,2114,Coed,Primary School,-33.808363,151.085097,126021503
Rye Park Public School,Rye Park,2586,Coed,Primary School,-34.521629,148.906651,101061542
Rylstone Public School,RYLSTONE,2849,Coed,Primary School,-32.795564,149.972877,103031073
St Johns Park Public School,St Johns Park,2176,Coed,Primary School,-33.887204,150.899278,127021520
St Marys Public School,St Marys,2760,Coed,Primary School,-33.768364,150.770634,124051581
St Peters Public School,St Peters,2044,Coed,Primary School,-33.912993,151.176696,117021328
Salt Ash Public School,SALT ASH,2318,Coed,Primary School,-32.787841,151.903848,106031125
Sans Souci Public School,Sans Souci,2219,Coed,Primary School,-33.99499,151.12923,119041382
Savernake Public School,Savernake,2646,Coed,Primary School,-35.732197,146.047569,109031181
Sawtell Public School,Sawtell,2452,Coed,Primary School,-30.363316,153.09764,104021089
Scarborough Public School,Scarborough,2515,Coed,Primary School,-34.266182,150.966036,107041148
Schofields Public School,Schofields,2762,Coed,Primary School,-33.693115,150.875247,116021312
Seaham Public School,Seaham,2324,Coed,Primary School,-32.662095,151.729362,106031123
Seven Hills North Public School,Seven Hills,2147,Coed,Primary School,-33.759976,150.955041,116011307
Shellharbour Public School,Shellharbour,2529,Coed,Primary School,-34.578968,150.865109,107031141
Shortland Public School,Shortland,2307,Coed,Primary School,-32.881435,151.695063,111031231
Singleton Public School,Singleton,2330,Coed,Primary School,-32.563135,151.171752,106011112
Smithfield Public School,Smithfield,2164,Coed,Primary School,-33.853583,150.933495,127021519
Smithtown Public School,Smithtown,2440,Coed,Primary School,-31.018188,152.941365,108021156
Sofala Public School,Sofala,2795,Coed,Primary School,-33.082242,149.695172,103011060
Somersby Public School,Gosford,2250,Coed,Primary School,-33.358368,151.291312,102011030
Somerton Public School,Somerton,2340,Coed,Primary School,-30.938432,150.641556,110041205
South West Rocks Public School,SOUTH WEST ROCKS,2431,Coed,Primary School,-30.891502,153.039879,108021160
Spring Hill Public School,Spring Hill,2800,Coed,Primary School,-33.399574,149.151294,103041079
Spring Ridge Public School,Spring Ridge,2343,Coed,Primary School,-31.392399,150.254649,110041201
Spring Terrace Public School,Spring Terrace,2798,Coed,Primary School,-33.393976,149.097369,103041079
Springwood Public School,Springwood,2777,Coed,Primary School,-33.704613,150.573472,124011454
Stanwell Park Public School,Stanwell Park,2508,Coed,Primary School,-34.228715,150.984536,107041147
Warrawong Public School,WARRAWONG,2502,Coed,Primary School,-34.481367,150.877847,107011546
Stockinbingal Public School,Stockinbingal,2725,Coed,Primary School,-34.497611,147.883065,113031263
Stockton Public School,Stockton,2295,Coed,Primary School,-32.910956,151.781095,111031232
Stokers Siding Public School,Stokers Siding,2484,Coed,Primary School,-28.393823,153.404371,112031252
Stratford Public School,Stratford,2422,Coed,Primary School,-32.116885,151.93922,108051167
Stratheden Public School,Stratheden,2470,Coed,Primary School,-28.755713,152.937222,112021245
Strathfield North Public School,North Strathfield,2137,Coed,Primary School,-33.854531,151.09204,120011384
Strathfield South Public School,STRATHFIELD,2135,Coed,Primary School,-33.89078,151.084702,120031575
Stroud Public School,Stroud,2425,Coed,Primary School,-32.402533,151.964239,108011151
Stroud Road Public School,Stroud Road,2415,Coed,Primary School,-32.347986,151.932369,108011151
Stuart Town Public School,Stuart Town,2820,Coed,Primary School,-32.802566,149.068273,105031106
Summer Hill Public School,Summer Hill,2130,Coed,Primary School,-33.895815,151.135853,120031395
Sutherland Public School,Sutherland,2232,Coed,Primary School,-34.033001,151.059149,128021538
Sutton Public School,Sutton,2620,Coed,Primary School,-35.165611,149.254979,101061542
Swansea Public School,Swansea,2281,Coed,Primary School,-33.084061,151.636301,111011212
Sylvania Public School,Sylvania,2224,Coed,Primary School,-34.008118,151.112077,128011531
Tabulam Public School,Tabulam,2469,Coed,Primary School,-28.888649,152.568703,112021245
Tacoma Public School,Tacoma,2259,Coed,Primary School,-33.28298,151.458936,102021057
Tahmoor Public School,Tahmoor,2573,Coed,Primary School,-34.227663,150.588951,123031447
Tallimba Public School,Tallimba,2669,Coed,Primary School,-33.993586,146.877792,103021069
Tallong Public School,TALLONG,2579,Coed,Primary School,-34.721496,150.083341,101051540
Tambar Springs Public School,Tambar Springs,2381,Coed,Primary School,-31.348351,149.827874,110041200
Tamworth Public School,Tamworth,2340,Coed,Primary School,-31.084712,150.935305,110041203
Tamworth West Public School,West Tamworth,2340,Coed,Primary School,-31.09158,150.920563,110041202
Tanja Public School,Tanja,2550,Coed,Primary School,-36.64029,149.975072,101041020
Tarago Public School,Tarago,2580,Coed,Primary School,-35.067671,149.654751,101021011
Taralga Public School,Taralga,2580,Coed,Primary School,-34.397974,149.820962,101051540
Tarcutta Public School,Tarcutta,2652,Coed,Primary School,-35.279294,147.738339,113031271
Taree Public School,Taree,2430,Coed,Primary School,-31.910904,152.462158,108051169
Taren Point Public School,Taren Point,2229,Coed,Primary School,-34.01808,151.12269,128011531
Tathra Public School,Tathra,2550,Coed,Primary School,-36.732802,149.979602,101041019
Tea Gardens Public School,Tea Gardens,2324,Coed,Primary School,-32.667785,152.157991,106031124
Telegraph Point Public School,Telegraph Point,2441,Coed,Primary School,-31.334143,152.793129,108041165
Temora Public School,Temora,2666,Coed,Primary School,-34.444843,147.535265,113031266
Tenambit Public School,Tenambit,2323,Coed,Primary School,-32.742528,151.604859,106021115
The Sir Henry Parkes Memorial Public School,TENTERFIELD,2372,Coed,Primary School,-29.056081,152.026106,110021194
Teralba Public School,Teralba,2284,Coed,Primary School,-32.962493,151.605976,111021215
Terara Public School,Terara,2540,Coed,Primary School,-34.866633,150.63038,114011278
Terranora Public School,Terranora,2486,Coed,Primary School,-28.240248,153.499272,112031551
Terrey Hills Public School,Terrey Hills,2084,Coed,Primary School,-33.685723,151.222619,122031432
Terrigal Public School,Terrigal,2260,Coed,Primary School,-33.442449,151.438197,102011039
Tharbogang Public School,Tharbogang,2680,Coed,Primary School,-34.26162,145.984922,113011257
Thirlmere Public School,Thirlmere,2572,Coed,Primary School,-34.204832,150.569311,123031447
Thirroul Public School,Thirroul,2515,Coed,Primary School,-34.31521,150.918701,107041148
Thornton Public School,Thornton,2322,Coed,Primary School,-32.779381,151.639454,106021118
Thurgoona Public School,Thurgoona,2640,Coed,Primary School,-36.047283,146.983289,109011172
Tibooburra Outback Public School,Tibooburra,2880,Coed,Primary School,-29.432133,142.010166,105021098
Tighes Hill Public School,Tighes Hill,2297,Coed,Primary School,-32.908099,151.751254,111031235
Central Tilba Public School,Central Tilba,2546,Coed,Primary School,-36.315664,150.07194,101041027
Tingha Public School,Tingha,2369,Coed,Primary School,-29.959145,151.213606,110021192
Tinonee Public School,Tinonee,2430,Coed,Primary School,-31.932855,152.413577,108051169
Tintinhull Public School,Kootingal,2352,Coed,Primary School,-31.085665,151.008427,110041205
Tirranna Public School,Goulburn,2580,Coed,Primary School,-34.821486,149.682068,101051540
Tocumwal Public School,Tocumwal,2714,Coed,Primary School,-35.813862,145.56885,109031185
Tomerong Public School,Tomerong,2540,Coed,Primary School,-35.054973,150.587182,114011281
Tooleybuc Central School,Tooleybuc,2736,Coed,Central/Community School,-35.026575,143.338058,109021179
Main Arm Upper Public School,Upper Main Arm,2482,Coed,Primary School,-28.498479,153.41241,112011243
Toomelah Public School,Boggabilla,2409,Coed,Primary School,-28.670903,150.478952,110031196
Toongabbie Public School,Toongabbie,2146,Coed,Primary School,-33.787181,150.966667,125041493
Tooraweenah Public School,Tooraweenah,2831,Coed,Primary School,-31.434763,148.912216,105031104
Toronto Public School,Toronto,2283,Coed,Primary School,-33.00826,151.594778,111021219
Tottenham Central School,Tottenham,2873,Coed,Central/Community School,-32.245635,147.3521,103021062
Toukley Public School,Toukley,2263,Coed,Primary School,-33.267795,151.550307,102021054
Towamba Public School,Towamba,2550,Coed,Primary School,-37.084209,149.695158,101041020
Trangie Central School,Trangie,2823,Coed,Central/Community School,-32.032544,147.979305,105031105
Tregeagle Public School,TREGEAGLE,2480,Coed,Primary School,-28.854095,153.354412,112021249
Trundle Central School,Trundle,2875,Coed,Central/Community School,-32.925365,147.709198,103021068
Trunkey Public School,Trunkey Creek,2795,Coed,Primary School,-33.816498,149.326253,103011060
Tucabia Public School,Tucabia,2462,Coed,Primary School,-29.666698,153.106575,104011081
Tuggerah Public School,Tuggerah,2259,Coed,Primary School,-33.312999,151.415571,102021055
Tullamore Central School,TULLAMORE,2874,Coed,Central/Community School,-32.636788,147.565993,103021062
Tullibigeal Central School,Tullibigeal,2669,Coed,Central/Community School,-33.422886,146.722678,103021062
Tumbarumba Public School,Tumbarumba,2653,Coed,Primary School,-35.77635,148.013814,113021260
Tumbulgum Public School,Tumbulgum,2490,Coed,Primary School,-28.273997,153.463358,112031252
Tumut Public School,Tumut,2720,Coed,Primary School,-35.302393,148.218556,113021261
Tuntable Creek Public School,Tuntable Creek,2480,Coed,Primary School,-28.63176,153.266152,112021249
Turramurra North Public School,North Turramurra,2074,Coed,Primary School,-33.714724,151.147816,121031411
Tweed Heads Public School,Tweed Heads,2485,Coed,Primary School,-28.16951,153.541571,112031254
Tyalgum Public School,Tyalgum,2484,Coed,Primary School,-28.354475,153.204978,112031252
Uki Public School,UKI,2484,Coed,Primary School,-28.415027,153.334263,112031252
Ulan Public School,Ulan,2850,Coed,Primary School,-32.282054,149.743473,103031074
Ulladulla Public School,Ulladulla,2539,Coed,Primary School,-35.355186,150.469434,114011282
Ulmarra Public School,Ulmarra,2462,Coed,Primary School,-29.629006,153.030932,104011081
Ulong Public School,Ulong,2450,Coed,Primary School,-30.243019,152.884857,104021087
Ultimo Public School,Ultimo,2007,Coed,Primary School,-33.877674,151.195607,117031334
Unanderra Public School,Cordeaux Heights,2526,Coed,Primary School,-34.445456,150.834704,107011134
Undercliffe Public School,Earlwood,2206,Coed,Primary School,-33.924086,151.138601,119021364
Ungarie Central School,UNGARIE,2669,Coed,Central/Community School,-33.637104,146.977953,103021069
Urana Public School,Urana,2645,Coed,Primary School,-35.32746,146.267129,109031181
Urbenville Public School,Urbenville,2475,Coed,Primary School,-28.47348,152.545565,110021194
Urunga Public School,Urunga,2455,Coed,Primary School,-30.495206,153.020428,104021090
Vacy Public School,Vacy,2421,Coed,Primary School,-32.54218,151.577555,106011110
Vaucluse Public School,Vaucluse,2030,Coed,Primary School,-33.850478,151.281166,118011346
Carramar Public School,Carramar,2163,Coed,Primary School,-33.885512,150.969204,125031480
Vineyard Public School,Vineyard,2765,Coed,Primary School,-33.647352,150.857935,116021312
Wagga Wagga Public School,Wagga Wagga,2650,Coed,Primary School,-35.10783,147.365841,113031270
North Wagga Public School,Wagga Wagga,2650,Coed,Primary School,-35.096215,147.379513,113031268
South Wagga Public School,WAGGA WAGGA,2650,Coed,Primary School,-35.119291,147.36681,113031270
Waitara Public School,WAHROONGA,2076,Coed,Primary School,-33.708119,151.111586,121021579
Wakool Burraboi Public School,Wakool,2710,Coed,Primary School,-35.46632,144.393127,109031183
Walbundrie Public School,WALLA WALLA,2659,Coed,Primary School,-35.687427,146.726779,109011175
Walcha Central School,Walcha,2354,Coed,Central/Community School,-30.981805,151.604194,110011189
Walgett Community College - Primary School,Walgett,2832,Coed,Primary School,-30.020291,148.11566,105011096
Walhallow Public School,CAROONA,2343,Coed,Primary School,-31.39507,150.426226,110041201
Wallabadah Public School,Wallabadah,2343,Coed,Primary School,-31.541044,150.828256,110041201
Wallacia Public School,Wallacia,2745,Coed,Primary School,-33.862695,150.641613,124031463
Walla Walla Public School,Walla Walla,2659,Coed,Primary School,-35.757961,146.900625,109011175
Wallendbeen Public School,Wallendbeen,2588,Coed,Primary School,-34.52524,148.159228,113031263
Wallerawang Public School,Wallerawang,2845,Coed,Primary School,-33.41768,150.069793,103031071
Wallsend Public School,WALLSEND,2287,Coed,Primary School,-32.908099,151.671582,111031233
West Wallsend Public School,West Wallsend,2286,Coed,Primary School,-32.904606,151.580707,111021221
Wamoon Public School,Wamoon,2705,Coed,Primary School,-34.526015,146.330876,113011258
Wanaaring Public School,Wanaaring,2840,Coed,Primary School,-29.705267,144.145456,105011092
Wangi Wangi Public School,Wangi Wangi,2267,Coed,Primary School,-33.072298,151.582994,111021220
Waratah Public School,WARATAH,2298,Coed,Primary School,-32.905046,151.722576,111031234
Wardell Public School,Wardell,2477,Coed,Primary School,-28.950252,153.468779,112011237
Warialda Public School,Warialda,2402,Coed,Primary School,-29.541831,150.573638,110021193
Warners Bay Public School,WARNERS BAY,2282,Coed,Primary School,-32.979971,151.648614,111011214
Warrawee Public School,Turramurra,2074,Coed,Primary School,-33.729484,151.121236,121031412
Warren Central School,WARREN,2824,Coed,Central/Community School,-31.705114,147.836503,105011095
Waterfall Public School,Waterfall,2233,Coed,Primary School,-34.137598,150.995977,128021533
Wattle Flat Public School,Wattle Flat,2795,Coed,Primary School,-33.141545,149.692677,103011060
Wauchope Public School,Wauchope,2446,Coed,Primary School,-31.455935,152.729534,108041166
Wee Jasper Public School,Wee Jasper,2582,Coed,Primary School,-35.108785,148.673792,101061542
Weethalle Public School,Weethalle,2669,Coed,Primary School,-33.880024,146.619256,103021069
Wee Waa Public School,Wee Waa,2388,Coed,Primary School,-30.223621,149.442587,110031198
Wellington Public School,Wellington,2820,Coed,Primary School,-32.556883,148.943374,105031106
Wentworth Public School,WENTWORTH,2648,Coed,Primary School,-34.103249,141.918751,109021178
Wentworth Falls Public School,Wentworth Falls,2782,Coed,Primary School,-33.714112,150.373525,124011455
Wentworthville Public School,WENTWORTHVILLE,2145,Coed,Primary School,-33.814004,150.968613,125041589
Werris Creek Public School,WERRIS CREEK,2341,Coed,Primary School,-31.348938,150.651466,110041201
Westdale Public School,Westdale,2340,Coed,Primary School,-31.093714,150.873927,110041204
Weston Public School,WESTON,2326,Coed,Primary School,-32.809043,151.461023,106011111
White Cliffs Public School,White Cliffs,2836,Coed,Primary School,-30.850852,143.090278,105021098
Whitton-Murrami Public School,Whitton,2705,Coed,Primary School,-34.518934,146.181248,113011257
Wiangaree Public School,WIANGAREE,2474,Coed,Primary School,-28.511356,152.965535,112021247
Wilberforce Public School,Wilberforce,2756,Coed,Primary School,-33.558704,150.839763,115031300
Wilcannia Central School,Wilcannia,2836,Coed,Central/Community School,-31.558478,143.37591,105021098
Willawarrin Public School,Willawarrin,2440,Coed,Primary School,-30.925714,152.625518,108021156
Willoughby Public School,WILLOUGHBY,2068,Coed,Primary School,-33.802197,151.200123,121011402
Willow Tree Public School,WILLOW TREE,2339,Coed,Primary School,-31.656802,150.729034,110041201
Athelstane Public School,Arncliffe,2205,Coed,Primary School,-33.937445,151.138362,119041375
Wilsons Creek Public School,Mullumbimby,2482,Coed,Primary School,-28.570833,153.426178,112011243
Windellama Public School,Goulburn,2580,Coed,Primary School,-35.009988,149.833521,101051540
Windsor Public School,Windsor,2756,Coed,Primary School,-33.610366,150.816413,124041467
Wingello Public School,Wingello,2579,Coed,Primary School,-34.688162,150.153487,114021289
Wisemans Ferry Public School,Wisemans Ferry,2775,Coed,Primary School,-33.385958,150.984133,115021297
Wollongbar Public School,Wollongbar,2477,Coed,Primary School,-28.82699,153.420113,112011237
Wollongong West Public School,Wollongong,2500,Coed,Primary School,-34.424597,150.871509,107041549
Wolumla Public School,WOLUMLA,2550,Coed,Primary School,-36.832664,149.811656,101041020
Wombat Public School,Wombat,2587,Coed,Primary School,-34.426627,148.245202,101061544
Wongarbon Public School,WONGARBON,2831,Coed,Primary School,-32.333558,148.759119,105031103
Woodburn Public School,Woodburn,2472,Coed,Primary School,-29.07539,153.339292,112011241
Woodenbong Central School,Woodenbong,2476,Coed,Central/Community School,-28.389728,152.610148,112021247
Woodstock Public School,Woodstock,2793,Coed,Primary School,-33.74594,148.849046,103021064
Woolbrook Public School,Woolbrook,2354,Coed,Primary School,-30.970234,151.344607,110011189
Woolgoolga Public School,Woolgoolga,2456,Coed,Primary School,-30.112673,153.196501,104021091
Borenore Public School,BORENORE,2800,Coed,Primary School,-33.251005,148.984209,103041079
Woolomin Public School,Woolomin,2340,Coed,Primary School,-31.30177,151.14807,110041205
Woonona Public School,Woonona,2517,Coed,Primary School,-34.345569,150.906806,107041150
Wyalong Public School,Wyalong,2671,Coed,Primary School,-33.923925,147.24207,103021069
West Wyalong Public School,West Wyalong,2671,Coed,Primary School,-33.918502,147.204056,103021069
Wyangala Dam Public School,WYANGALA,2808,Coed,Primary School,-33.966981,148.947211,103021064
Wyee Public School,Wyee,2259,Coed,Primary School,-33.174833,151.482961,111021218
Wyndham Public School,Wyndham,2550,Coed,Primary School,-36.92962,149.64656,101041020
Wyong Public School,Wyong,2259,Coed,Primary School,-33.271886,151.426188,102021057
Wyong Creek Public School,WYONG CREEK,2259,Coed,Primary School,-33.267129,151.34807,102021049
Wyrallah Public School,Wyrallah,2480,Coed,Primary School,-28.890407,153.305718,112021249
Yamba Public School,Yamba,2464,Coed,Primary School,-29.439524,153.353157,104011082
Table Top Public School,Table Top,2640,Coed,Primary School,-35.967573,147.007302,109011175
Yanco Public School,Yanco,2703,Coed,Primary School,-34.597911,146.411211,113011258
Yanderra Public School,Yanderra,2574,Coed,Primary School,-34.320475,150.571244,123031445
Yarrowitch Public School,Yarrowitch,2354,Coed,Primary School,-31.25059,151.94821,110011189
Yass Public School,Yass,2582,Coed,Primary School,-34.837588,148.906865,101061541
Yenda Public School,Yenda,2681,Coed,Primary School,-34.252389,146.198309,113011257
Yeoval Central School,Yeoval,2868,Coed,Central/Community School,-32.754375,148.649673,105031106
Yerong Creek Public School,Yerong Creek,2642,Coed,Primary School,-35.386787,147.060987,113031271
Yetman Public School,Yetman,2410,Coed,Primary School,-28.902219,150.776261,110021192
Yoogali Public School,Yoogali,2680,Coed,Primary School,-34.299691,146.086176,113011256
Young Public School,Young,2594,Coed,Primary School,-34.321407,148.290231,101061543
Edgeworth Public School,Edgeworth,2285,Coed,Primary School,-32.922892,151.620387,111021217
Zig Zag Public School,Lithgow,2790,Coed,Primary School,-33.466136,150.182826,103031070
Pottsville Beach Public School,Pottsville,2489,Coed,Primary School,-28.377625,153.567798,112031253
Rowena Public School,Rowena,2387,Coed,Primary School,-29.81393,148.91249,105011096
Dubbo West Public School,Dubbo,2830,Coed,Primary School,-32.251915,148.588301,105031102
Oyster Bay Public School,Oyster Bay,2225,Coed,Primary School,-34.00779,151.080693,128021536
Louth Public School,Louth,2840,Coed,Primary School,-30.535792,145.117942,105011092
Kemps Creek Public School,KEMPS CREEK,2178,Coed,Primary School,-33.882805,150.790299,127011505
Enngonia Public School,Enngonia,2840,Coed,Primary School,-29.318855,145.844482,105011092
Fairfield Heights Public School,FAIRFIELD,2165,Coed,Primary School,-33.866094,150.940272,127021516
Scotts Head Public School,Scotts Head,2447,Coed,Primary School,-30.749941,152.995226,108021157
Afterlee Public School,AFTERLEE,2474,Coed,Primary School,-28.582276,152.817857,112021247
Stuarts Point Public School,Stuarts Point,2441,Coed,Primary School,-30.818842,152.993686,108021156
Sussex Inlet Public School,Sussex Inlet,2540,Coed,Primary School,-35.167302,150.584194,114011280
Cronulla South Public School,Cronulla,2230,Coed,Primary School,-34.06611,151.154201,128011604
St Georges Basin Public School,Basin View,2540,Coed,Primary School,-35.090698,150.563917,114011279
Warwick Farm Public School,Warwick Farm,2170,Coed,Primary School,-33.909642,150.929409,127031601
Oxley Vale Public School,Tamworth,2340,Coed,Primary School,-31.058786,150.89498,110041203
Soldiers Point Public School,Soldiers Point,2317,Coed,Primary School,-32.709978,152.065351,106031121
Chester Hill Public School,Chester Hill,2162,Coed,Primary School,-33.885597,151.00161,125031479
Georges Hall Public School,Georges Hall,2198,Coed,Primary School,-33.912435,150.9922,119011354
South Coogee Public School,South Coogee,2034,Coed,Primary School,-33.933333,151.25409,118021348
Croppa Creek Public School,Croppa Creek,2411,Coed,Primary School,-29.125234,150.309397,110031196
Annangrove Public School,Annangrove,2156,Coed,Primary School,-33.667417,150.95255,115021297
Woronora River Public School,WORONORA,2232,Coed,Primary School,-34.026575,151.041114,128021535
Balgowlah Heights Public School,Balgowlah,2093,Coed,Primary School,-33.805985,151.258754,122011418
Goulburn West Public School,Goulburn,2580,Coed,Primary School,-34.759172,149.700707,101051539
Riverwood Public School,Riverwood,2210,Coed,Primary School,-33.947208,151.046586,119031373
Warragamba Public School,WARRAGAMBA,2752,Coed,Primary School,-33.890924,150.60539,124031465
Belrose Public School,Belrose,2085,Coed,Primary School,-33.727235,151.216645,122031428
Upper Coopers Creek Public School,Upper Coopers Creek,2480,Coed,Primary School,-28.607149,153.401937,112011243
Wiripaang Public School,Gateshead,2290,Coed,Primary School,-32.984172,151.691355,111011208
Bundeena Public School,Bundeena,2230,Coed,Primary School,-34.086792,151.152422,128011604
Pymble Public School,Pymble,2073,Coed,Primary School,-33.732269,151.141089,121031409
Condell Park Public School,CONDELL PARK,2200,Coed,Primary School,-33.925486,151.013674,119011356
Avalon Public School,Avalon Beach,2107,Coed,Primary School,-33.639377,151.326739,122021420
Bald Face Public School,Blakehurst,2221,Coed,Primary School,-33.996752,151.106905,119031374
Hamilton South Public School,Merewether,2291,Coed,Primary School,-32.93344,151.753489,111031228
Lugarno Public School,Lugarno,2210,Coed,Primary School,-33.984956,151.044676,119031372
Oatley West Public School,Oatley,2223,Coed,Primary School,-33.979006,151.065459,119031369
New Lambton South Public School,New Lambton,2305,Coed,Primary School,-32.931487,151.717578,111031225
Chullora Public School,Greenacre,2190,Coed,Primary School,-33.895371,151.060249,119011357
Tarrawanna Public School,Tarrawanna,2518,Coed,Primary School,-34.380764,150.890246,107041145
Sutherland North Public School,Sutherland,2232,Coed,Primary School,-34.026785,151.067084,128021538
Bathurst West Public School,Bathurst,2795,Coed,Primary School,-33.411002,149.559746,103011058
Gwynneville Public School,Gwynneville,2500,Coed,Primary School,-34.417233,150.879364,107041549
Narraweena Public School,NARRAWEENA,2099,Coed,Primary School,-33.7492,151.273639,122031424
Jannali Public School,JANNALI,2226,Coed,Primary School,-34.017945,151.060909,128021536
Ramsgate Public School,Ramsgate,2217,Coed,Primary School,-33.981431,151.143549,119041382
Chalmers Road School,Strathfield,2135,Coed,Schools for Specific Purposes,-33.879569,151.081613,120031575
Wahroonga Public School,Wahroonga,2076,Coed,Primary School,-33.715583,151.128476,121031412
Parramatta East Public School,Parramatta,2150,Coed,Primary School,-33.806081,151.017766,125041489
Melrose Park Public School,West Ryde,2114,Coed,Primary School,-33.814849,151.071939,125021477
Bathurst South Public School,Bathurst,2795,Coed,Primary School,-33.432989,149.568873,103011058
Wallsend South Public School,Wallsend,2287,Coed,Primary School,-32.920075,151.675241,111031233
Hazelbrook Public School,Hazelbrook,2779,Coed,Primary School,-33.726554,150.459399,124011453
Turramurra Public School,Turramurra,2074,Coed,Primary School,-33.745258,151.114305,121031411
Wyrallah Road Public School,Lismore,2480,Coed,Primary School,-28.830301,153.293261,112021248
Oak Flats Public School,Oak Flats,2529,Coed,Primary School,-34.56257,150.817546,107031142
Denistone East Public School,Eastwood,2122,Coed,Primary School,-33.7943,151.096571,126021497
Meadowbank Public School,Ryde,2112,Coed,Primary School,-33.817807,151.097677,126021591
Uralla Central School,Uralla,2358,Coed,Central/Community School,-30.641511,151.494437,110011188
Towradgi Public School,Fairy Meadow,2519,Coed,Primary School,-34.388937,150.899966,107041144
Lake Illawarra South Public School,LAKE ILLAWARRA,2528,Coed,Primary School,-34.539523,150.859302,107031143
Yagoona Public School,Yagoona,2199,Coed,Primary School,-33.909174,151.026716,119011361
Wattle Grove Public School,Wattle Grove,2173,Coed,Primary School,-33.958654,150.937482,127031524
Greenwell Point Public School,Greenwell Point,2540,Coed,Primary School,-34.907445,150.730396,114011274
Dobroyd Point Public School,HABERFIELD,2045,Coed,Primary School,-33.874416,151.140692,120031395
Kahibah Public School,Kahibah,2290,Coed,Primary School,-32.964902,151.713608,111011208
Narwee Public School,Narwee,2209,Coed,Primary School,-33.948186,151.06865,119031370
Muswellbrook South Public School,Muswellbrook,2333,Coed,Primary School,-32.274182,150.891943,106041126
Corrimal East Public School,East Corrimal,2518,Coed,Primary School,-34.377988,150.906532,107041145
Mount St Thomas Public School,Wollongong,2500,Coed,Primary School,-34.436911,150.870048,107041549
Tamworth South Public School,Tamworth,2340,Coed,Primary School,-31.105062,150.911701,110041202
Westmead Public School,Westmead,2145,Coed,Primary School,-33.810171,150.985291,125041589
Mount Colah Public School,Mount Colah,2079,Coed,Primary School,-33.672947,151.115695,121021403
McCallums Hill Public School,Roselands,2196,Coed,Primary School,-33.934891,151.084758,119021367
Cooma North Public School,Cooma North,2630,Coed,Primary School,-36.217908,149.130576,101031014
Windale Public School,Windale,2306,Coed,Primary School,-32.992372,151.678338,111011210
Cardiff South Public School,Cardiff South,2285,Coed,Primary School,-32.953106,151.66521,111011209
